{"last_updated":1574212646,"ttl":6,"data":{"stations":[{"station_id":"7000","name":"Fort York  Blvd / Capreol Ct","physical_configuration":"REGULAR","lat":43.639832,"lon":-79.395954,"altitude":0.0,"address":"Fort York  Blvd / Capreol Ct","capacity":35,"rental_methods":["KEY","CREDITCARD","TRANSITCARD","PHONE"],"groups":[],"obcn":"647-643-9607","nearby_distance":500.0},{"station_id":"7001","name":"Lower Jarvis St / The Esplanade","physical_configuration":"REGULAR","lat":43.647992,"lon":-79.370907,"altitude":0.0,"address":"Lower Jarvis St / The Esplanade","capacity":15,"rental_methods":["KEY","CREDITCARD","TRANSITCARD","PHONE"],"groups":[],"obcn":"416-617-9576","nearby_distance":500.0},{"station_id":"7002","name":"St. George St / Bloor St W","physical_configuration":"REGULAR","lat":43.667333,"lon":-79.399429,"altitude":0.0,"address":"St. George St / Bloor St W","capacity":19,"rental_methods":["KEY","CREDITCARD","TRANSITCARD","PHONE"],"groups":[],"obcn":"647-643-9615","nearby_distance":500.0},{"station_id":"7003","name":"Madison Ave / Bloor St W","physical_configuration":"REGULAR","lat":43.667158,"lon":-79.402761,"altitude":null,"address":"Madison Ave / Bloor St W","capacity":15,"rental_methods":["KEY","CREDITCARD","TRANSITCARD","PHONE"],"groups":[],"obcn":"647-631-4587","nearby_distance":500.0},{"station_id":"7004","name":"University Ave / Elm St","physical_configuration":"REGULAR","lat":43.656518,"lon":-79.389099,"altitude":null,"address":"University Ave / Elm St","capacity":11,"rental_methods":["KEY","CREDITCARD","TRANSITCARD","PHONE"],"groups":[],"obcn":"647-643-9673","nearby_distance":500.0},{"station_id":"7005","name":"King St W / York St","physical_configuration":"REGULAR","lat":43.6480008,"lon":-79.383177,"altitude":0.0,"address":"King St W / York St","capacity":19,"rental_methods":["KEY","CREDITCARD","TRANSITCARD","PHONE"],"groups":[],"obcn":"647-643-9693","nearby_distance":500.0},{"station_id":"7006","name":"Bay St / College St (East Side)","physical_configuration":"REGULAR","lat":43.660439,"lon":-79.385525,"altitude":0.0,"address":"Bay St / College St (East Side)","capacity":11,"rental_methods":["KEY","CREDITCARD","TRANSITCARD","PHONE"],"groups":[],"obcn":"416-569-2349","nearby_distance":500.0},{"station_id":"7007","name":"College St / Huron St","physical_configuration":"REGULAR","lat":43.658148,"lon":-79.398167,"altitude":0.0,"address":"College St / Huron St","capacity":19,"rental_methods":["KEY","CREDITCARD","TRANSITCARD","PHONE"],"groups":[],"obcn":"647-625-3582","nearby_distance":500.0},{"station_id":"7008","name":"Wellesley St / Queen's Park Cres","physical_configuration":"REGULAR","lat":43.663376,"lon":-79.392125,"altitude":0.0,"address":"Wellesley St W / Queen's Park Cres","capacity":19,"rental_methods":["KEY","CREDITCARD","TRANSITCARD","PHONE"],"groups":[],"obcn":"647-643-9648","nearby_distance":500.0},{"station_id":"7009","name":"King St E / Jarvis St","physical_configuration":"REGULAR","lat":43.650325,"lon":-79.372287,"altitude":0.0,"address":"King St E / Jarvis St","capacity":25,"rental_methods":["KEY","CREDITCARD","TRANSITCARD","PHONE"],"groups":[],"obcn":"647-620-8649","nearby_distance":500.0},{"station_id":"7010","name":"King St W / Spadina Ave","physical_configuration":"REGULAR","lat":43.645323,"lon":-79.395003,"altitude":0.0,"address":"King St W / Spadina Ave","capacity":19,"rental_methods":["KEY","CREDITCARD","TRANSITCARD","PHONE"],"groups":[],"obcn":"647-202-6537","nearby_distance":500.0},{"station_id":"7011","name":"Wellington St W / Portland St","physical_configuration":"REGULAR","lat":43.642982,"lon":-79.399256,"altitude":0.0,"address":"Wellington St W / Portland St","capacity":11,"rental_methods":["KEY","CREDITCARD","TRANSITCARD","PHONE"],"groups":[],"obcn":"416-624-4001","nearby_distance":500.0},{"station_id":"7012","name":"Elizabeth St / Edward St (Bus Terminal)","physical_configuration":"REGULAR","lat":43.656026,"lon":-79.385327,"altitude":0.0,"address":"Elizabeth St / Edward St (Bus Terminal)","capacity":15,"rental_methods":["KEY","CREDITCARD","TRANSITCARD","PHONE"],"groups":[],"obcn":"647-643-9665","nearby_distance":500.0},{"station_id":"7013","name":"Scott St / The Esplanade","physical_configuration":"REGULAR","lat":43.64656,"lon":-79.375274,"altitude":0.0,"address":"Scott St / The Esplanade","capacity":19,"rental_methods":["KEY","CREDITCARD","TRANSITCARD","PHONE"],"groups":[],"obcn":"416-666-6440","nearby_distance":500.0},{"station_id":"7014","name":"Sherbourne St / Carlton St (Allan Gardens)","physical_configuration":"REGULAR","lat":43.663102,"lon":-79.373181,"altitude":0.0,"address":"Sherbourne St / Carlton St (Allan Gardens)","capacity":17,"rental_methods":["KEY","CREDITCARD","TRANSITCARD","PHONE"],"groups":[],"obcn":"416-710-6764","nearby_distance":500.0},{"station_id":"7015","name":"King St W / Bay St (West Side)","physical_configuration":"REGULAR","lat":43.64852,"lon":-79.380576,"altitude":0.0,"address":"King St W / Bay St (West Side)","capacity":19,"rental_methods":["KEY","CREDITCARD","TRANSITCARD","PHONE"],"groups":[],"obcn":"416-671-7595","nearby_distance":500.0},{"station_id":"7016","name":"Bay St / Queens Quay W (Ferry Terminal)","physical_configuration":"REGULAR","lat":43.640823,"lon":-79.376265,"altitude":0.0,"address":"Bay St / Queens Quay W (Ferry Terminal)","capacity":23,"rental_methods":["KEY","CREDITCARD","TRANSITCARD","PHONE"],"groups":[],"obcn":"647-271-1378","nearby_distance":500.0},{"station_id":"7017","name":"Widmer St / Adelaide St W","physical_configuration":"REGULAR","lat":43.6475076,"lon":-79.3914841,"altitude":0.0,"address":"Widmer St / Adelaide St W","capacity":11,"rental_methods":["KEY","CREDITCARD","TRANSITCARD","PHONE"],"groups":[],"obcn":"647-631-9958","nearby_distance":500.0},{"station_id":"7018","name":"Bremner Blvd / Rees St","physical_configuration":"REGULAR","lat":43.641529,"lon":-79.386741,"altitude":0.0,"address":"Bremner Blvd / Rees St","capacity":23,"rental_methods":["KEY","CREDITCARD","TRANSITCARD","PHONE"],"groups":[],"obcn":"647-669-0947","nearby_distance":500.0},{"station_id":"7019","name":"Temperance St. Station","physical_configuration":"REGULAR","lat":43.6507021,"lon":-79.3800546,"altitude":0.0,"address":"Temperance St. Station","capacity":19,"rental_methods":["KEY","CREDITCARD","TRANSITCARD","PHONE"],"groups":[],"obcn":"647-203-5761","nearby_distance":500.0},{"station_id":"7020","name":"Phoebe St / Spadina Ave","physical_configuration":"REGULAR","lat":43.650033,"lon":-79.396555,"altitude":null,"address":"Phoebe St / Spadina Ave","capacity":33,"rental_methods":["KEY","CREDITCARD","TRANSITCARD","PHONE"],"groups":[],"obcn":"647-621-5766","nearby_distance":500.0},{"station_id":"7021","name":"Bay St / Albert St","physical_configuration":"REGULAR","lat":43.653264,"lon":-79.382458,"altitude":0.0,"address":"Bay St / Albert St","capacity":35,"rental_methods":["KEY","CREDITCARD","TRANSITCARD","PHONE"],"groups":[],"obcn":"647-643-9652","nearby_distance":500.0},{"station_id":"7022","name":"Simcoe St / Queen St W","physical_configuration":"REGULAR","lat":43.650858,"lon":-79.387582,"altitude":null,"address":"Simcoe St / Queen St W","capacity":26,"rental_methods":["KEY","CREDITCARD","TRANSITCARD","PHONE"],"groups":[],"obcn":"647-625-3265","nearby_distance":500.0},{"station_id":"7023","name":"College St / Borden St","physical_configuration":"REGULAR","lat":43.6571,"lon":-79.4056,"altitude":0.0,"address":"College St / Borden St","capacity":11,"rental_methods":["KEY","CREDITCARD","TRANSITCARD","PHONE"],"groups":[],"obcn":"647-643-9629","nearby_distance":500.0},{"station_id":"7024","name":"Dundonald St / Church St","physical_configuration":"REGULAR","lat":43.66663,"lon":-79.38148,"altitude":0.0,"address":"Dundonald St / Church St","capacity":34,"rental_methods":["KEY","CREDITCARD","TRANSITCARD","PHONE"],"groups":[],"obcn":"647-631-9859","nearby_distance":500.0},{"station_id":"7025","name":"Ted Rogers Way / Bloor St E","physical_configuration":"REGULAR","lat":43.671293,"lon":-79.380471,"altitude":0.0,"address":"Ted Rogers Way / Bloor St E","capacity":27,"rental_methods":["KEY","CREDITCARD","TRANSITCARD","PHONE"],"groups":[],"obcn":"647-631-9970","nearby_distance":500.0},{"station_id":"7026","name":"Bay St / St. Joseph St","physical_configuration":"REGULAR","lat":43.665527,"lon":-79.387499,"altitude":null,"address":"Bay St / St. Joseph St","capacity":15,"rental_methods":["KEY","CREDITCARD","TRANSITCARD","PHONE"],"groups":[],"obcn":"416-666-0783","nearby_distance":500.0},{"station_id":"7027","name":"Beverley  St / Dundas St W","physical_configuration":"REGULAR","lat":43.652823,"lon":-79.393388,"altitude":0.0,"address":"Beverley  St / Dundas St W","capacity":31,"rental_methods":["KEY","CREDITCARD","TRANSITCARD","PHONE"],"groups":[],"obcn":"647-621-6739","nearby_distance":500.0},{"station_id":"7028","name":"Gould St / Mutual St","physical_configuration":"REGULAR","lat":43.6582,"lon":-79.3768,"altitude":null,"address":"Gould St / Mutual St","capacity":31,"rental_methods":["KEY","CREDITCARD","TRANSITCARD","PHONE"],"groups":[],"obcn":"416-560-7261","nearby_distance":500.0},{"station_id":"7029","name":"Bay St / Bloor St W (East Side)","physical_configuration":"REGULAR","lat":43.66943,"lon":-79.38915,"altitude":0.0,"address":"1199 Bay St","post_code":"M6G1X2","capacity":15,"rental_methods":["KEY","CREDITCARD","TRANSITCARD","PHONE"],"groups":[],"obcn":"647-669-3457","nearby_distance":500.0},{"station_id":"7030","name":"Bay St / Wellesley St W","physical_configuration":"REGULAR","lat":43.664088,"lon":-79.387095,"altitude":null,"address":"Bay St / Wellesley St W","capacity":49,"rental_methods":["KEY","CREDITCARD","TRANSITCARD","PHONE"],"groups":[],"obcn":"647-643-9612","nearby_distance":1609.34},{"station_id":"7031","name":"Jarvis St / Isabella St","physical_configuration":"REGULAR","lat":43.668991,"lon":-79.379385,"altitude":0.0,"address":"Jarvis St / Isabella St","capacity":22,"rental_methods":["KEY","CREDITCARD","TRANSITCARD","PHONE"],"groups":[],"obcn":"416-569-7503","nearby_distance":500.0},{"station_id":"7032","name":"Augusta Ave / Dundas St W","physical_configuration":"REGULAR","lat":43.652473,"lon":-79.401456,"altitude":0.0,"address":"Augusta Ave / Dundas St W","capacity":15,"rental_methods":["KEY","CREDITCARD","TRANSITCARD","PHONE"],"groups":[],"obcn":"647-622-8139","nearby_distance":500.0},{"station_id":"7033","name":"Union Station","physical_configuration":"REGULAR","lat":43.645609,"lon":-79.380386,"altitude":0.0,"address":"Union Station","capacity":26,"rental_methods":["KEY","CREDITCARD","TRANSITCARD","PHONE"],"groups":[],"obcn":"647-620-1494","nearby_distance":500.0},{"station_id":"7034","name":"Church St / Bloor St E","physical_configuration":"REGULAR","lat":43.671389,"lon":-79.382919,"altitude":0.0,"address":"Church St / Bloor St E","capacity":15,"rental_methods":["KEY","CREDITCARD","TRANSITCARD","PHONE"],"groups":[],"obcn":"437-992-7029","nearby_distance":500.0},{"station_id":"7035","name":"Queen St W / Ossington Ave","physical_configuration":"REGULAR","lat":43.643975,"lon":-79.419576,"altitude":0.0,"address":"Queen St W / Ossington Ave","capacity":23,"rental_methods":["KEY","CREDITCARD","TRANSITCARD","PHONE"],"groups":[],"obcn":"416-371-6632","nearby_distance":500.0},{"station_id":"7036","name":"Trinity St /Front St E","physical_configuration":"REGULAR","lat":43.651318,"lon":-79.36023,"altitude":0.0,"address":"Trinity St / Front St E","capacity":19,"rental_methods":["KEY","CREDITCARD","TRANSITCARD","PHONE"],"groups":[],"obcn":"416-816-5603","nearby_distance":500.0},{"station_id":"7037","name":"Bathurst St / Dundas St W","physical_configuration":"REGULAR","lat":43.6523,"lon":-79.4058,"altitude":0.0,"address":"Bathurst St / Dundas St W","capacity":41,"rental_methods":["KEY","CREDITCARD","TRANSITCARD","PHONE"],"groups":[],"obcn":"647-621-8042","nearby_distance":500.0},{"station_id":"7038","name":"Dundas St W / Yonge St","physical_configuration":"REGULAR","lat":43.656094,"lon":-79.381484,"altitude":0.0,"address":"Dundas St W / Yonge St","capacity":15,"rental_methods":["KEY","CREDITCARD","TRANSITCARD","PHONE"],"groups":[],"obcn":"647-643-9714","nearby_distance":500.0},{"station_id":"7039","name":"Simcoe St / Michael Sweet Ave","physical_configuration":"REGULAR","lat":43.652327224103,"lon":-79.3882538196087,"altitude":0.0,"address":"Simcoe St / Michael Sweet Ave","post_code":"M5T3M3","capacity":19,"rental_methods":["KEY","CREDITCARD","TRANSITCARD","PHONE"],"groups":[],"obcn":"647-202-6089","nearby_distance":500.0},{"station_id":"7040","name":"Euclid Ave / Bloor St W","physical_configuration":"REGULAR","lat":43.664467,"lon":-79.414783,"altitude":0.0,"address":"Euclid Ave / Bloor St W","capacity":19,"rental_methods":["KEY","CREDITCARD","TRANSITCARD","PHONE"],"groups":[],"obcn":"416-565-9380","nearby_distance":500.0},{"station_id":"7041","name":"Edward St / Yonge St","physical_configuration":"REGULAR","lat":43.656729,"lon":-79.382736,"altitude":null,"address":"Edward St / Yonge St","capacity":23,"rental_methods":["KEY","CREDITCARD","TRANSITCARD","PHONE"],"groups":[],"obcn":"647-643-9697","nearby_distance":500.0},{"station_id":"7042","name":"Sherbourne St / Wellesley St E","physical_configuration":"REGULAR","lat":43.6673,"lon":-79.374,"altitude":0.0,"address":"Sherbourne St / Wellesley St E","capacity":31,"rental_methods":["KEY","CREDITCARD","TRANSITCARD","PHONE"],"groups":[],"obcn":"416-804-0543","nearby_distance":500.0},{"station_id":"7043","name":"Queens Quay W / Lower Simcoe St","physical_configuration":"REGULAR","lat":43.63951,"lon":-79.383717,"altitude":0.0,"address":"Queens Quay W / Lower Simcoe St","capacity":18,"rental_methods":["KEY","CREDITCARD","TRANSITCARD","PHONE"],"groups":[],"obcn":"647-204-1380","nearby_distance":500.0},{"station_id":"7044","name":"Church St / Alexander St","physical_configuration":"REGULAR","lat":43.663722,"lon":-79.380288,"altitude":0.0,"address":"Church St / Alexander St","capacity":15,"rental_methods":["KEY","CREDITCARD","TRANSITCARD","PHONE"],"groups":[],"obcn":"647-618-1341","nearby_distance":500.0},{"station_id":"7045","name":"Bond St / Queen St E","physical_configuration":"REGULAR","lat":43.653236,"lon":-79.376716,"altitude":0.0,"address":"Bond St / Queen St E","capacity":25,"rental_methods":["KEY","CREDITCARD","TRANSITCARD","PHONE"],"groups":[],"obcn":"647-629-0639","nearby_distance":500.0},{"station_id":"7046","name":"Niagara St / Richmond St W","physical_configuration":"REGULAR","lat":43.64534,"lon":-79.409597,"altitude":0.0,"address":"Niagara St / Richmond St W","capacity":26,"rental_methods":["KEY","CREDITCARD","TRANSITCARD","PHONE"],"groups":[],"obcn":"647-643-9655","nearby_distance":500.0},{"station_id":"7047","name":"University Ave / Gerrard St W","physical_configuration":"REGULAR","lat":43.657763,"lon":-79.389165,"altitude":0.0,"address":"University Ave / Gerrard St W","capacity":24,"rental_methods":["KEY","CREDITCARD","TRANSITCARD","PHONE"],"groups":[],"obcn":"647-643-9690","nearby_distance":500.0},{"station_id":"7048","name":"Front St W / Yonge St (Hockey Hall of Fame)","physical_configuration":"REGULAR","lat":43.646144,"lon":-79.377962,"altitude":0.0,"address":"Front St W / Yonge St (Hockey Hall of Fame)","capacity":47,"rental_methods":["KEY","CREDITCARD","TRANSITCARD","PHONE"],"groups":[],"obcn":"647-204-0984","nearby_distance":500.0},{"station_id":"7049","name":"Queen St W / Portland St","physical_configuration":"REGULAR","lat":43.6476,"lon":-79.4015,"altitude":0.0,"address":"Queen St W / Portland St","capacity":22,"rental_methods":["KEY","CREDITCARD","TRANSITCARD","PHONE"],"groups":[],"obcn":"647-624-3144","nearby_distance":500.0},{"station_id":"7050","name":"Richmond St E / Jarvis St Green P","physical_configuration":"REGULAR","lat":43.652634,"lon":-79.374222,"altitude":0.0,"address":"Richmond St E / Jarvis St Green P","capacity":15,"rental_methods":["KEY","CREDITCARD","TRANSITCARD","PHONE"],"groups":[],"obcn":"416-602-5376","nearby_distance":500.0},{"station_id":"7051","name":"Wellesley St E / Yonge St (Green P)","physical_configuration":"REGULAR","lat":43.66506,"lon":-79.38357,"altitude":0.0,"address":"Wellesley St E / Yonge St (Green P)","capacity":17,"rental_methods":["KEY","CREDITCARD","TRANSITCARD","PHONE"],"groups":[],"obcn":"416-587-8911","nearby_distance":500.0},{"station_id":"7052","name":"Wellington St W / Bay St","physical_configuration":"REGULAR","lat":43.647259,"lon":-79.379878,"altitude":0.0,"address":"Wellington St W / Bay St","capacity":27,"rental_methods":["KEY","CREDITCARD","TRANSITCARD","PHONE"],"groups":[],"obcn":"416-723-3438","nearby_distance":500.0},{"station_id":"7053","name":"Metro Hall Plaza","physical_configuration":"REGULAR","lat":43.645859,"lon":-79.38783,"altitude":null,"address":"Metro Hall Plaza","capacity":27,"rental_methods":["KEY","CREDITCARD","TRANSITCARD","PHONE"],"groups":[],"obcn":"647-201-7794","nearby_distance":500.0},{"station_id":"7054","name":"Navy Wharf Ct. / Bremner Blvd.","physical_configuration":"REGULAR","lat":43.640722,"lon":-79.391051,"altitude":0.0,"address":"Navy Wharf Ct. / Bremner Blvd.","capacity":11,"rental_methods":["KEY","CREDITCARD","TRANSITCARD","PHONE"],"groups":[],"obcn":"416-662-2516","nearby_distance":500.0},{"station_id":"7055","name":"Jarvis St / Carlton St","physical_configuration":"REGULAR","lat":43.66207,"lon":-79.37617,"altitude":0.0,"address":"Jarvis St / Carlton St","capacity":15,"rental_methods":["KEY","CREDITCARD","TRANSITCARD","PHONE"],"groups":[],"obcn":"416-722-3901","nearby_distance":500.0},{"station_id":"7056","name":"Parliament St / Gerrard St","physical_configuration":"REGULAR","lat":43.662132,"lon":-79.3656796,"altitude":0.0,"address":"Parliament St / Gerrard St","capacity":23,"rental_methods":["KEY","CREDITCARD","TRANSITCARD","PHONE"],"groups":[],"obcn":"647-201-5089","nearby_distance":500.0},{"station_id":"7057","name":"Simcoe St / Wellington St South","physical_configuration":"REGULAR","lat":43.6458569,"lon":-79.3853654,"altitude":0.0,"address":"Simcoe St / Wellington St 1","post_code":"M6a1a1","capacity":27,"rental_methods":["KEY","CREDITCARD","TRANSITCARD","PHONE"],"groups":[],"obcn":"647-641-2103","nearby_distance":500.0},{"station_id":"7058","name":"Huron/ Harbord St","physical_configuration":"REGULAR","lat":43.6637,"lon":-79.400053,"altitude":0.0,"address":"Huron/ Harbord St","capacity":19,"rental_methods":["KEY","CREDITCARD","TRANSITCARD","PHONE"],"groups":[],"obcn":"647-643-9725","nearby_distance":500.0},{"station_id":"7059","name":"Front St W / Blue Jays Way","physical_configuration":"REGULAR","lat":43.643473,"lon":-79.390477,"altitude":0.0,"address":"Front St W / Blue Jays Way","capacity":15,"rental_methods":["KEY","CREDITCARD","TRANSITCARD","PHONE"],"groups":[],"obcn":"647-241-7299","nearby_distance":500.0},{"station_id":"7060","name":"Princess St / Adelaide St E","physical_configuration":"REGULAR","lat":43.652123,"lon":-79.367139,"altitude":0.0,"address":"Princess St / Adelaide St E","capacity":19,"rental_methods":["KEY","CREDITCARD","TRANSITCARD","PHONE"],"groups":[],"obcn":"416-569-5317","nearby_distance":500.0},{"station_id":"7061","name":"Dalton Rd / Bloor St W","physical_configuration":"REGULAR","lat":43.6662942,"lon":-79.4066433,"altitude":0.0,"address":"Bloor St / Brunswick Ave","post_code":"M6G1A1","capacity":19,"rental_methods":["KEY","CREDITCARD","TRANSITCARD","PHONE"],"groups":[],"obcn":"647-643-9676","nearby_distance":500.0},{"station_id":"7062","name":"University Ave / College St (West)","physical_configuration":"REGULAR","lat":43.659226,"lon":-79.390213,"altitude":null,"address":"University Ave / College St (West)","capacity":11,"rental_methods":["KEY","CREDITCARD","TRANSITCARD","PHONE"],"groups":[],"obcn":"647-643-9667","nearby_distance":500.0},{"station_id":"7063","name":"Queen's Park / Bloor St W","physical_configuration":"REGULAR","lat":43.668456,"lon":-79.393899,"altitude":0.0,"address":"Queen's Park / Bloor St W","capacity":19,"rental_methods":["KEY","CREDITCARD","TRANSITCARD","PHONE"],"groups":[],"obcn":"647-632-5491","nearby_distance":500.0},{"station_id":"7064","name":"51 Parliament St","physical_configuration":"REGULAR","lat":43.65205,"lon":-79.362198,"altitude":0.0,"address":"51 Parliament St","capacity":19,"rental_methods":["KEY","CREDITCARD","TRANSITCARD","PHONE"],"groups":[],"obcn":"647-241-9519","nearby_distance":500.0},{"station_id":"7065","name":"Dundas St E / Parliament St","physical_configuration":"REGULAR","lat":43.659575,"lon":-79.365769,"altitude":0.0,"address":"Dundas St E / Parliament St","capacity":15,"rental_methods":["KEY","CREDITCARD","TRANSITCARD","PHONE"],"groups":[],"obcn":"416-568-2679","nearby_distance":500.0},{"station_id":"7066","name":"Willcocks St / St. George St","physical_configuration":"REGULAR","lat":43.662085,"lon":-79.397735,"altitude":0.0,"address":"Willcocks St / St. George St","capacity":16,"rental_methods":["KEY","CREDITCARD","TRANSITCARD","PHONE"],"groups":[],"obcn":"647-643-9624","nearby_distance":500.0},{"station_id":"7067","name":"Yonge St / Harbour St","physical_configuration":"REGULAR","lat":43.643795,"lon":-79.375413,"altitude":0.0,"address":"Yonge St / Harbour St","capacity":38,"rental_methods":["KEY","CREDITCARD","TRANSITCARD","PHONE"],"groups":[],"obcn":"647-643-9613","nearby_distance":500.0},{"station_id":"7068","name":"Dockside Dr / Queens Quay E (Sugar Beach)","physical_configuration":"REGULAR","lat":43.644607,"lon":-79.366295,"altitude":0.0,"address":"Dockside Dr / Queens Quay E (Sugar Beach)","capacity":27,"rental_methods":["KEY","CREDITCARD","TRANSITCARD","PHONE"],"groups":[],"obcn":"437-999-9028","nearby_distance":500.0},{"station_id":"7069","name":"Queen St W / Spadina Ave","physical_configuration":"REGULAR","lat":43.649147,"lon":-79.395504,"altitude":0.0,"address":"Queen St W / Spadina Ave","capacity":11,"rental_methods":["KEY","CREDITCARD","TRANSITCARD","PHONE"],"groups":[],"obcn":"647-622-8344","nearby_distance":500.0},{"station_id":"7070","name":"25 York St – Union Station South","physical_configuration":"REGULAR","lat":43.643667,"lon":-79.380414,"altitude":0.0,"address":"25 York St – Union Station South","capacity":11,"rental_methods":["KEY","CREDITCARD","TRANSITCARD","PHONE"],"groups":[],"obcn":"416-624-8596","nearby_distance":500.0},{"station_id":"7071","name":"161 Bleecker St (South of Wellesley)","physical_configuration":"REGULAR","lat":43.666233,"lon":-79.373327,"altitude":0.0,"address":"161 Bleecker St (South of Wellesley)","capacity":23,"rental_methods":["KEY","CREDITCARD","TRANSITCARD","PHONE"],"groups":[],"obcn":"647-643-9846","nearby_distance":500.0},{"station_id":"7073","name":"Spadina Ave / Fort York Blvd","physical_configuration":"REGULAR","lat":43.640114,"lon":-79.393249,"altitude":0.0,"address":"Spadina Ave / Fort York Blvd","capacity":23,"rental_methods":["KEY","CREDITCARD","TRANSITCARD","PHONE"],"groups":[],"obcn":"416-627-9646","nearby_distance":500.0},{"station_id":"7074","name":"Spadina Ave / Sussex Ave","physical_configuration":"REGULAR","lat":43.664137,"lon":-79.402496,"altitude":0.0,"address":"Spadina Ave / Sussex Ave","capacity":27,"rental_methods":["KEY","CREDITCARD","TRANSITCARD","PHONE"],"groups":[],"obcn":"647-643-9718","nearby_distance":500.0},{"station_id":"7075","name":"Queens Quay W / Dan Leckie Way","physical_configuration":"REGULAR","lat":43.636533,"lon":-79.395854,"altitude":0.0,"address":"Queens Quay W / Dan Leckie Way","capacity":27,"rental_methods":["KEY","CREDITCARD","TRANSITCARD","PHONE"],"groups":[],"obcn":"416-669-9604","nearby_distance":500.0},{"station_id":"7076","name":"York St / Queens Quay W","physical_configuration":"REGULAR","lat":43.640132,"lon":-79.380464,"altitude":0.0,"address":"York St / Queens Quay W","capacity":26,"rental_methods":["KEY","CREDITCARD","TRANSITCARD","PHONE"],"groups":[],"obcn":"416-618-7456","nearby_distance":500.0},{"station_id":"7077","name":"College Park South","physical_configuration":"REGULAR","lat":43.659777,"lon":-79.382767,"altitude":0.0,"address":"College Park South","capacity":18,"rental_methods":["KEY","CREDITCARD","TRANSITCARD","PHONE"],"groups":[],"obcn":"647-643-9694","nearby_distance":500.0},{"station_id":"7078","name":"College St / Major St","physical_configuration":"REGULAR","lat":43.6576,"lon":-79.4032,"altitude":0.0,"address":"College St / Major St","capacity":11,"rental_methods":["KEY","CREDITCARD","TRANSITCARD","PHONE"],"groups":[],"obcn":"647-643-9638","nearby_distance":500.0},{"station_id":"7079","name":"McGill St / Church St","physical_configuration":"REGULAR","lat":43.660694,"lon":-79.379052,"altitude":0.0,"address":"McGill St / Church St","capacity":19,"rental_methods":["KEY","CREDITCARD","TRANSITCARD","PHONE"],"groups":[],"obcn":"437-999-8524","nearby_distance":500.0},{"station_id":"7083","name":"Danforth Ave / Barrington Ave","physical_configuration":"REGULAR","lat":43.688325,"lon":-79.300463,"altitude":0.0,"address":"Danforth Ave / Barrington Ave","capacity":15,"rental_methods":["KEY","CREDITCARD","TRANSITCARD","PHONE"],"groups":[],"obcn":"647-631-4821","nearby_distance":500.0},{"station_id":"7084","name":"High Park - Grenadier Cafe","physical_configuration":"REGULAR","lat":43.645599,"lon":-79.4657123,"altitude":0.0,"address":"High Park - Grenadier Cafe","capacity":11,"rental_methods":["KEY","CREDITCARD","TRANSITCARD","PHONE"],"groups":[],"obcn":"647-643-9563","nearby_distance":1609.34},{"station_id":"7085","name":"Danforth Ave / Westlake Ave","physical_configuration":"REGULAR","lat":43.687323,"lon":-79.304848,"altitude":0.0,"address":"Danforth Ave / Westlake Ave","capacity":15,"rental_methods":["KEY","CREDITCARD","TRANSITCARD","PHONE"],"groups":[],"obcn":"647-201-8853","nearby_distance":500.0},{"station_id":"7086","name":"High Park - West Rd","physical_configuration":"REGULAR","lat":43.6525077,"lon":-79.4654233,"altitude":0.0,"address":"High Park - West Rd","post_code":"1324","capacity":23,"rental_methods":["KEY","CREDITCARD","TRANSITCARD","PHONE"],"groups":[],"obcn":"647-641-7093","nearby_distance":1609.34},{"station_id":"7087","name":"Danforth Ave / Aldridge Ave","physical_configuration":"REGULAR","lat":43.684758,"lon":-79.316767,"altitude":0.0,"address":"Danforth Ave / Aldridge Ave","capacity":11,"rental_methods":["KEY","CREDITCARD","TRANSITCARD","PHONE"],"groups":[],"obcn":"647-641-9873","nearby_distance":1000.0},{"station_id":"7088","name":"Danforth Ave / Coxwell Ave","physical_configuration":"REGULAR","lat":43.683378,"lon":-79.322961,"altitude":0.0,"address":"Danforth Ave / Coxwell Ave","capacity":15,"rental_methods":["KEY","CREDITCARD","TRANSITCARD","PHONE"],"groups":[],"obcn":"647-248-5891","nearby_distance":500.0},{"station_id":"7089","name":"Church St  / Wood St","physical_configuration":"REGULAR","lat":43.662712,"lon":-79.379903,"altitude":102.08,"address":"Church St / Wood St","capacity":19,"rental_methods":["KEY","CREDITCARD","TRANSITCARD","PHONE"],"groups":[],"obcn":"647-262-1148","nearby_distance":500.0},{"station_id":"7090","name":"Danforth Ave / Lamb Ave","physical_configuration":"REGULAR","lat":43.681991,"lon":-79.329455,"altitude":0.0,"address":"Danforth Ave / Lamb Ave","capacity":15,"rental_methods":["KEY","CREDITCARD","TRANSITCARD","PHONE"],"groups":[],"obcn":"647-641-6203","nearby_distance":500.0},{"station_id":"7091","name":"Donlands Station","physical_configuration":"REGULAR","lat":43.681126,"lon":-79.337779,"altitude":0.0,"address":"Donlands Station","capacity":11,"rental_methods":["KEY","CREDITCARD","TRANSITCARD","PHONE"],"groups":[],"obcn":"647-669-1705","nearby_distance":1000.0},{"station_id":"7092","name":"Pape Subway Green P","physical_configuration":"REGULAR","lat":43.680223,"lon":-79.344062,"altitude":0.0,"address":"Pape Subway Green P","capacity":15,"rental_methods":["KEY","CREDITCARD","TRANSITCARD","PHONE"],"groups":[],"obcn":"647-641-3078","nearby_distance":500.0},{"station_id":"7093","name":"Danforth Ave / Gough Ave","physical_configuration":"REGULAR","lat":43.678401,"lon":-79.346289,"altitude":0.0,"address":"Danforth Ave / Gough Ave","capacity":17,"rental_methods":["KEY","CREDITCARD","TRANSITCARD","PHONE"],"groups":[],"obcn":"647-669-1671","nearby_distance":500.0},{"station_id":"7094","name":"Chester Station","physical_configuration":"REGULAR","lat":43.678056,"lon":-79.352222,"altitude":0.0,"address":"Chester Station","capacity":11,"rental_methods":["KEY","CREDITCARD","TRANSITCARD","PHONE"],"groups":[],"obcn":"647-638-8374","nearby_distance":500.0},{"station_id":"7095","name":"Danforth Ave / Ellerbeck St","physical_configuration":"REGULAR","lat":43.677076,"lon":-79.35667,"altitude":0.0,"address":"Danforth Ave / Ellerbeck St","capacity":14,"rental_methods":["KEY","CREDITCARD","TRANSITCARD","PHONE"],"groups":[],"obcn":"647-669-1678","nearby_distance":500.0},{"station_id":"7096","name":"Boston Ave / Queen St E","physical_configuration":"REGULAR","lat":43.661508,"lon":-79.338931,"altitude":0.0,"address":"Boston Ave / Queen St E","capacity":19,"rental_methods":["KEY","CREDITCARD","TRANSITCARD","PHONE"],"groups":[],"obcn":"647-669-3908","nearby_distance":500.0},{"station_id":"7097","name":"Riverdale Park North (Broadview Ave)","physical_configuration":"REGULAR","lat":43.671172,"lon":-79.354704,"altitude":0.0,"address":"Riverdale Park North (Broadview Ave)","capacity":15,"rental_methods":["KEY","CREDITCARD","TRANSITCARD","PHONE"],"groups":[],"obcn":"647-643-9838","nearby_distance":500.0},{"station_id":"7098","name":"Riverdale Park South (Broadview Ave)","physical_configuration":"REGULAR","lat":43.667819,"lon":-79.35347,"altitude":0.0,"address":"Riverdale Park South (Broadview Ave)","capacity":15,"rental_methods":["KEY","CREDITCARD","TRANSITCARD","PHONE"],"groups":[],"obcn":"647-640-5291","nearby_distance":500.0},{"station_id":"7099","name":"Cherry St / Mill St","physical_configuration":"REGULAR","lat":43.651248,"lon":-79.357848,"altitude":0.0,"address":"Cherry St / Mill St","capacity":15,"rental_methods":["KEY","CREDITCARD","TRANSITCARD","PHONE"],"groups":[],"obcn":"647-640-7714","nearby_distance":500.0},{"station_id":"7100","name":"Dundas St E / Regent Park Blvd","physical_configuration":"REGULAR","lat":43.660207,"lon":-79.361275,"altitude":0.0,"address":"Dundas St E / Regent Park Blvd","capacity":19,"rental_methods":["KEY","CREDITCARD","TRANSITCARD","PHONE"],"groups":[],"obcn":"647-669-3847","nearby_distance":500.0},{"station_id":"7101","name":"Lower Sherbourne St / The Esplanade","physical_configuration":"REGULAR","lat":43.648655,"lon":-79.367061,"altitude":0.0,"address":"Lower Sherbourne St / The Esplanade","capacity":27,"rental_methods":["KEY","CREDITCARD","TRANSITCARD","PHONE"],"groups":[],"obcn":"647-641-5818","nearby_distance":500.0},{"station_id":"7102","name":"Nelson St / Duncan St","physical_configuration":"REGULAR","lat":43.648711,"lon":-79.389728,"altitude":0.0,"address":"Nelson St / Duncan St","capacity":31,"rental_methods":["KEY","CREDITCARD","TRANSITCARD","PHONE"],"groups":[],"obcn":"647-641-5951","nearby_distance":500.0},{"station_id":"7103","name":"Jimmie Simpson Park (Queen St E)","physical_configuration":"REGULAR","lat":43.6605603,"lon":-79.3437663,"altitude":0.0,"address":"Jimmie Simpson Park (Queen St E)","capacity":11,"rental_methods":["KEY","CREDITCARD","TRANSITCARD","PHONE"],"groups":[],"obcn":"647-669-2521","nearby_distance":500.0},{"station_id":"7104","name":"King St E / River St","physical_configuration":"REGULAR","lat":43.657071,"lon":-79.356598,"altitude":0.0,"address":"King St E / River St","capacity":15,"rental_methods":["KEY","CREDITCARD","TRANSITCARD","PHONE"],"groups":[],"obcn":"647-641-5813","nearby_distance":500.0},{"station_id":"7105","name":"Queen St E / Sackville St","physical_configuration":"REGULAR","lat":43.6561111,"lon":-79.36138888888888,"altitude":0.0,"address":"Queen St E / Sackville St","capacity":15,"rental_methods":["KEY","CREDITCARD","TRANSITCARD","PHONE"],"groups":[],"obcn":"647-290-7069","nearby_distance":500.0},{"station_id":"7106","name":"Mill St / Tannery Rd","physical_configuration":"REGULAR","lat":43.652219,"lon":-79.354455,"altitude":0.0,"address":"Mill St / Tannery Rd","capacity":15,"rental_methods":["KEY","CREDITCARD","TRANSITCARD","PHONE"],"groups":[],"obcn":"647-641-5839","nearby_distance":500.0},{"station_id":"7107","name":"Cherry St / Distillery Ln","physical_configuration":"REGULAR","lat":43.650279,"lon":-79.356832,"altitude":0.0,"address":"Cherry St / Distillery Ln","capacity":15,"rental_methods":["KEY","CREDITCARD","TRANSITCARD","PHONE"],"groups":[],"obcn":"647-669-2608","nearby_distance":500.0},{"station_id":"7108","name":"Front St E / Cherry St","physical_configuration":"REGULAR","lat":43.652686,"lon":-79.358395,"altitude":0.0,"address":"Front St E / Cherry St","capacity":15,"rental_methods":["KEY","CREDITCARD","TRANSITCARD","PHONE"],"groups":[],"obcn":"647-669-4512","nearby_distance":500.0},{"station_id":"7109","name":"Seaton St / Dundas St E","physical_configuration":"REGULAR","lat":43.658777,"lon":-79.369596,"altitude":0.0,"address":"Seaton St / Dundas St E","capacity":11,"rental_methods":["KEY","CREDITCARD","TRANSITCARD","PHONE"],"groups":[],"obcn":"647-669-3971","nearby_distance":500.0},{"station_id":"7110","name":"Queen St E / Berkeley St","physical_configuration":"REGULAR","lat":43.6552778,"lon":-79.36583333333333,"altitude":0.0,"address":"Queen St E / Berkeley St","capacity":15,"rental_methods":["KEY","CREDITCARD","TRANSITCARD","PHONE"],"groups":[],"obcn":"647-290-4392","nearby_distance":500.0},{"station_id":"7111","name":"King St W / Douro St","physical_configuration":"REGULAR","lat":43.640885,"lon":-79.416379,"altitude":0.0,"address":"King St W / Douro St","capacity":10,"rental_methods":["KEY","CREDITCARD","TRANSITCARD","PHONE"],"groups":[],"obcn":"647-641-5214","nearby_distance":500.0},{"station_id":"7112","name":"Liberty St / Fraser Ave Green P","physical_configuration":"REGULAR","lat":43.637981,"lon":-79.424146,"altitude":0.0,"address":"Liberty St / Fraser Ave Green P","capacity":19,"rental_methods":["KEY","CREDITCARD","TRANSITCARD","PHONE"],"groups":[],"obcn":"647-669-3920","nearby_distance":500.0},{"station_id":"7113","name":"Parliament St / Aberdeen Ave","physical_configuration":"REGULAR","lat":43.665278,"lon":-79.368333,"altitude":0.0,"address":"Parliament St / Aberdeen Ave","capacity":15,"rental_methods":["KEY","CREDITCARD","TRANSITCARD","PHONE"],"groups":[],"obcn":"647-640-5613","nearby_distance":500.0},{"station_id":"7114","name":"Carlton St / Parliament St","physical_configuration":"REGULAR","lat":43.664524,"lon":-79.36793,"altitude":0.0,"address":"Carlton St / Parliament St","capacity":15,"rental_methods":["KEY","CREDITCARD","TRANSITCARD","PHONE"],"groups":[],"obcn":"647-262-2870","nearby_distance":500.0},{"station_id":"7115","name":"Howard St / Sherbourne St","physical_configuration":"REGULAR","lat":43.6712581,"lon":-79.376367,"altitude":0.0,"address":"Howard St / Sherbourne St","capacity":15,"rental_methods":["KEY","CREDITCARD","TRANSITCARD","PHONE"],"groups":[],"obcn":"647-641-1259","nearby_distance":500.0},{"station_id":"7116","name":"Parliament St / Bloor St E","physical_configuration":"REGULAR","lat":43.671827,"lon":-79.371849,"altitude":0.0,"address":"Parliament St / Bloor St E","capacity":15,"rental_methods":["KEY","CREDITCARD","TRANSITCARD","PHONE"],"groups":[],"obcn":"647-640-7289","nearby_distance":500.0},{"station_id":"7117","name":"Castle Frank Station","physical_configuration":"REGULAR","lat":43.674083,"lon":-79.368579,"altitude":0.0,"address":"Castle Frank Station","capacity":15,"rental_methods":["KEY","CREDITCARD","TRANSITCARD","PHONE"],"groups":[],"obcn":"647-267-2042","nearby_distance":500.0},{"station_id":"7118","name":"King St W / Bay St (East Side)","physical_configuration":"REGULAR","lat":43.648575,"lon":-79.380042,"altitude":0.0,"address":"King St W / Bay St (East Side)","capacity":18,"rental_methods":["KEY","CREDITCARD","TRANSITCARD","PHONE"],"groups":[],"obcn":"647-271-6326","nearby_distance":500.0},{"station_id":"7119","name":"Sumach St / Carlton St. (Riverdale Farm)","physical_configuration":"REGULAR","lat":43.665867,"lon":-79.362506,"altitude":0.0,"address":"Sumach St / Carlton St (Riverdale Farm)","capacity":14,"rental_methods":["KEY","CREDITCARD","TRANSITCARD","PHONE"],"groups":[],"obcn":"647-282-9705","nearby_distance":500.0},{"station_id":"7120","name":"Gerrard St E / River St","physical_configuration":"REGULAR","lat":43.663993,"lon":-79.358534,"altitude":0.0,"address":"Gerrard St E / River St","capacity":11,"rental_methods":["KEY","CREDITCARD","TRANSITCARD","PHONE"],"groups":[],"obcn":"647-643-9843","nearby_distance":500.0},{"station_id":"7121","name":"Jarvis St / Dundas St E","physical_configuration":"REGULAR","lat":43.657266,"lon":-79.374756,"altitude":0.0,"address":"Jarvis St / Dundas St E","capacity":15,"rental_methods":["KEY","CREDITCARD","TRANSITCARD","PHONE"],"groups":[],"obcn":"647-641-5582","nearby_distance":500.0},{"station_id":"7122","name":"Niagara St / Tecumseth St","physical_configuration":"REGULAR","lat":43.641389,"lon":-79.404444,"altitude":0.0,"address":"Niagara St / Tecumseth St","capacity":15,"rental_methods":["KEY","CREDITCARD","TRANSITCARD","PHONE"],"groups":[],"obcn":"647-272-3286","nearby_distance":500.0},{"station_id":"7123","name":"424 Wellington St W","physical_configuration":"REGULAR","lat":43.643834,"lon":-79.396649,"altitude":0.0,"address":"424 Wellington St W","capacity":15,"rental_methods":["KEY","CREDITCARD","TRANSITCARD","PHONE"],"groups":[],"obcn":"647-272-4047","nearby_distance":500.0},{"station_id":"7124","name":"Dundas St E / Broadview Ave","physical_configuration":"REGULAR","lat":43.662365,"lon":-79.351104,"altitude":0.0,"address":"Dundas St E / Broadview Ave","capacity":19,"rental_methods":["KEY","CREDITCARD","TRANSITCARD","PHONE"],"groups":[],"obcn":"647-669-4283","nearby_distance":500.0},{"station_id":"7126","name":"Yonge St / Yorkville Ave","physical_configuration":"REGULAR","lat":43.671944,"lon":-79.387778,"altitude":0.0,"address":"Yonge St / Yorkville Ave","capacity":17,"rental_methods":["KEY","CREDITCARD","TRANSITCARD","PHONE"],"groups":[],"obcn":"647-719-3941","nearby_distance":500.0},{"station_id":"7127","name":"Bay St / Davenport Rd","physical_configuration":"REGULAR","lat":43.672829,"lon":-79.390592,"altitude":0.0,"address":"Bay St / Davenport Rd","capacity":15,"rental_methods":["KEY","CREDITCARD","TRANSITCARD","PHONE"],"groups":[],"obcn":"647-201-6479","nearby_distance":500.0},{"station_id":"7128","name":"Yonge St / Aylmer Ave","physical_configuration":"REGULAR","lat":43.675492,"lon":-79.388858,"altitude":0.0,"address":"Yonge St / Aylmer Ave","capacity":15,"rental_methods":["KEY","CREDITCARD","TRANSITCARD","PHONE"],"groups":[],"obcn":"647-641-6641","nearby_distance":500.0},{"station_id":"7129","name":"Davenport Rd / Avenue Rd","physical_configuration":"REGULAR","lat":43.674991,"lon":-79.396273,"altitude":0.0,"address":"Davenport Rd / Avenue Rd","capacity":11,"rental_methods":["KEY","CREDITCARD","TRANSITCARD","PHONE"],"groups":[],"obcn":"437-992-7074","nearby_distance":500.0},{"station_id":"7130","name":"Davenport Rd / Bedford Rd","physical_configuration":"REGULAR","lat":43.6743985,"lon":-79.3986601,"altitude":0.0,"address":"Davenport Rd / Bedford Rd","post_code":"M6G1X2","capacity":7,"rental_methods":["KEY","CREDITCARD","TRANSITCARD","PHONE"],"groups":[],"obcn":"647-641-6906","nearby_distance":500.0},{"station_id":"7131","name":"Taddle Creek Park","physical_configuration":"REGULAR","lat":43.66986,"lon":-79.398443,"altitude":0.0,"address":"Taddle Creek Park","capacity":15,"rental_methods":["KEY","CREDITCARD","TRANSITCARD","PHONE"],"groups":[],"obcn":"647-309-1691","nearby_distance":500.0},{"station_id":"7132","name":"Kendal Ave / Spadina Rd","physical_configuration":"REGULAR","lat":43.670318,"lon":-79.405181,"altitude":0.0,"address":"Kendal Ave / Spadina Rd","capacity":8,"rental_methods":["KEY","CREDITCARD","TRANSITCARD","PHONE"],"groups":[],"obcn":"647-641-7095","nearby_distance":500.0},{"station_id":"7133","name":"Summerhill Station","physical_configuration":"REGULAR","lat":43.681944,"lon":-79.390556,"altitude":0.0,"address":"Summerhill Station","capacity":11,"rental_methods":["KEY","CREDITCARD","TRANSITCARD","PHONE"],"groups":[],"obcn":"647-328-4512","nearby_distance":500.0},{"station_id":"7134","name":"Marlborough Ave / Yonge St","physical_configuration":"REGULAR","lat":43.68,"lon":-79.391111,"altitude":0.0,"address":"Marlborough Ave / Yonge St","capacity":23,"rental_methods":["KEY","CREDITCARD","TRANSITCARD","PHONE"],"groups":[],"obcn":"647-641-6918","nearby_distance":500.0},{"station_id":"7135","name":"Hanna Ave / Liberty St","physical_configuration":"REGULAR","lat":43.638333,"lon":-79.419722,"altitude":0.0,"address":"Hanna Ave / Liberty St","capacity":15,"rental_methods":["KEY","CREDITCARD","TRANSITCARD","PHONE"],"groups":[],"obcn":"647-280-9962","nearby_distance":500.0},{"station_id":"7136","name":"Queen St W / Close Ave","physical_configuration":"REGULAR","lat":43.640634,"lon":-79.435841,"altitude":0.0,"address":"Queen St W / Close Ave","capacity":23,"rental_methods":["KEY","CREDITCARD","TRANSITCARD","PHONE"],"groups":[],"obcn":"647-624-8559","nearby_distance":500.0},{"station_id":"7137","name":"Davenport Rd / Bathurst St","physical_configuration":"REGULAR","lat":43.676667,"lon":-79.416111,"altitude":0.0,"address":"Davenport Rd / Bathurst St","capacity":15,"rental_methods":["KEY","CREDITCARD","TRANSITCARD","PHONE"],"groups":[],"obcn":"647-641-6859","nearby_distance":500.0},{"station_id":"7138","name":"Davenport Rd / Christie St","physical_configuration":"REGULAR","lat":43.675278,"lon":-79.423889,"altitude":0.0,"address":"Davenport Rd / Christie St","capacity":15,"rental_methods":["KEY","CREDITCARD","TRANSITCARD","PHONE"],"groups":[],"obcn":"647-669-2814","nearby_distance":500.0},{"station_id":"7139","name":"Glen Edyth Dr / Davenport Rd","physical_configuration":"REGULAR","lat":43.677778,"lon":-79.405556,"altitude":0.0,"address":"Glen Edyth Dr / Davenport Rd","capacity":15,"rental_methods":["KEY","CREDITCARD","TRANSITCARD","PHONE"],"groups":[],"obcn":"647-643-9830","nearby_distance":500.0},{"station_id":"7140","name":"Macpherson Ave / Spadina Rd","physical_configuration":"REGULAR","lat":43.675791,"lon":-79.40698,"altitude":0.0,"address":"Macpherson Ave / Spadina Rd","capacity":15,"rental_methods":["KEY","CREDITCARD","TRANSITCARD","PHONE"],"groups":[],"obcn":"647-669-2824","nearby_distance":500.0},{"station_id":"7141","name":"Bridgeman Ave / Kendal Ave","physical_configuration":"REGULAR","lat":43.675556,"lon":-79.410278,"altitude":0.0,"address":"Bridgeman Ave / Kendal Ave","capacity":15,"rental_methods":["KEY","CREDITCARD","TRANSITCARD","PHONE"],"groups":[],"obcn":"647-640-7641","nearby_distance":500.0},{"station_id":"7142","name":"Bridgeman Ave / Bathurst St","physical_configuration":"REGULAR","lat":43.674444,"lon":-79.414722,"altitude":0.0,"address":"Bridgeman Ave / Bathurst St","capacity":15,"rental_methods":["KEY","CREDITCARD","TRANSITCARD","PHONE"],"groups":[],"obcn":"647-669-4408","nearby_distance":500.0},{"station_id":"7143","name":"Kendal Ave / Bernard Ave","physical_configuration":"REGULAR","lat":43.671513,"lon":-79.408317,"altitude":0.0,"address":"Kendal Ave / Bernard Ave","capacity":15,"rental_methods":["KEY","CREDITCARD","TRANSITCARD","PHONE"],"groups":[],"obcn":"647-643-9741","nearby_distance":500.0},{"station_id":"7144","name":"Palmerston Ave / Vermont Ave","physical_configuration":"REGULAR","lat":43.671389,"lon":-79.416389,"altitude":0.0,"address":"Palmerston Ave / Vermont Ave","capacity":15,"rental_methods":["KEY","CREDITCARD","TRANSITCARD","PHONE"],"groups":[],"obcn":"647-284-2560","nearby_distance":500.0},{"station_id":"7146","name":"Christie St / Benson Ave (Wychwood Barns)","physical_configuration":"REGULAR","lat":43.68,"lon":-79.42500000000001,"altitude":0.0,"address":"Christie St / Benson Ave (Wychwood Barns)","capacity":19,"rental_methods":["KEY","CREDITCARD","TRANSITCARD","PHONE"],"groups":[],"obcn":"647-643-9742","nearby_distance":500.0},{"station_id":"7147","name":"King St W / Fraser Ave","physical_configuration":"REGULAR","lat":43.6394444,"lon":-79.42527777777778,"altitude":0.0,"address":"King St W / Fraser Ave","capacity":15,"rental_methods":["KEY","CREDITCARD","TRANSITCARD","PHONE"],"groups":[],"obcn":"647-669-3846","nearby_distance":500.0},{"station_id":"7148","name":"King St W / Joe Shuster Way","physical_configuration":"REGULAR","lat":43.639444,"lon":-79.423611,"altitude":0.0,"address":"King St W / Joe Shuster Way","capacity":15,"rental_methods":["KEY","CREDITCARD","TRANSITCARD","PHONE"],"groups":[],"obcn":"647-285-4281","nearby_distance":500.0},{"station_id":"7149","name":"Yarmouth Rd / Christie St","physical_configuration":"REGULAR","lat":43.67,"lon":-79.42083333333333,"altitude":0.0,"address":"Yarmouth Rd / Christie St","capacity":11,"rental_methods":["KEY","CREDITCARD","TRANSITCARD","PHONE"],"groups":[],"obcn":"647-287-2061","nearby_distance":500.0},{"station_id":"7150","name":"Dufferin St / Sylvan Av (Dufferin Grove Park)","physical_configuration":"REGULAR","lat":43.6555556,"lon":-79.43361111111112,"altitude":0.0,"address":"Dufferin St / Sylvan Av (Dufferin Grove Park)","capacity":19,"rental_methods":["KEY","CREDITCARD","TRANSITCARD","PHONE"],"groups":[],"obcn":"647-643-9812","nearby_distance":500.0},{"station_id":"7151","name":"Essex St / Christie St","physical_configuration":"REGULAR","lat":43.6686111,"lon":-79.42027777777778,"altitude":0.0,"address":"Essex St / Christie St","capacity":18,"rental_methods":["KEY","CREDITCARD","TRANSITCARD","PHONE"],"groups":[],"obcn":"647-643-9745","nearby_distance":500.0},{"station_id":"7152","name":"Ossington Ave / Bloor St W","physical_configuration":"REGULAR","lat":43.661705,"lon":-79.425734,"altitude":0.0,"address":"Ossington Ave / Bloor St W","capacity":11,"rental_methods":["KEY","CREDITCARD","TRANSITCARD","PHONE"],"groups":[],"obcn":"647-286-9204","nearby_distance":500.0},{"station_id":"7153","name":"Bloor St W / Christie St","physical_configuration":"REGULAR","lat":43.6638889,"lon":-79.41888888888889,"altitude":0.0,"address":"Bloor St W / Christie St","capacity":19,"rental_methods":["KEY","CREDITCARD","TRANSITCARD","PHONE"],"groups":[],"obcn":"647-643-9744","nearby_distance":500.0},{"station_id":"7154","name":"Bathurst Subway Station","physical_configuration":"REGULAR","lat":43.6666667,"lon":-79.41166666666668,"altitude":0.0,"address":"Bathurst Subway Station","capacity":23,"rental_methods":["KEY","CREDITCARD","TRANSITCARD","PHONE"],"groups":[],"obcn":"647-289-4712","nearby_distance":500.0},{"station_id":"7155","name":"Bathurst St / Lennox St","physical_configuration":"REGULAR","lat":43.663808,"lon":-79.410491,"altitude":0.0,"address":"Bathurst St / Lennox St","capacity":19,"rental_methods":["KEY","CREDITCARD","TRANSITCARD","PHONE"],"groups":[],"obcn":"647-643-9750","nearby_distance":500.0},{"station_id":"7156","name":"Salem Ave / Bloor St W","physical_configuration":"REGULAR","lat":43.6608333,"lon":-79.43166666666667,"altitude":0.0,"address":"Salem Ave / Bloor St W","capacity":22,"rental_methods":["KEY","CREDITCARD","TRANSITCARD","PHONE"],"groups":[],"obcn":"647-289-9256","nearby_distance":500.0},{"station_id":"7157","name":"Dufferin St / Bloor St","physical_configuration":"REGULAR","lat":43.66083333333333,"lon":-79.43583333333333,"altitude":0.0,"address":"Dufferin St / Bloor St","capacity":15,"rental_methods":["KEY","CREDITCARD","TRANSITCARD","PHONE"],"groups":[],"obcn":"647-309-0950","nearby_distance":500.0},{"station_id":"7158","name":"King St W / Stafford St","physical_configuration":"REGULAR","lat":43.6422222,"lon":-79.41111111111111,"altitude":0.0,"address":"King St W / Stafford St","capacity":15,"rental_methods":["KEY","CREDITCARD","TRANSITCARD","PHONE"],"groups":[],"obcn":"647-300-9735","nearby_distance":500.0},{"station_id":"7160","name":"King St W / Tecumseth St","physical_configuration":"REGULAR","lat":43.64333333333333,"lon":-79.40555555555557,"altitude":0.0,"address":"King St W / Tecumseth St","capacity":15,"rental_methods":["KEY","CREDITCARD","TRANSITCARD","PHONE"],"groups":[],"obcn":"647-302-3804","nearby_distance":500.0},{"station_id":"7161","name":"Beverley St / College St","physical_configuration":"REGULAR","lat":43.6575,"lon":-79.39527777777778,"altitude":0.0,"address":"Beverley St / College St","capacity":23,"rental_methods":["KEY","CREDITCARD","TRANSITCARD","PHONE"],"groups":[],"obcn":"647-643-9768","nearby_distance":500.0},{"station_id":"7162","name":"Hayter St / Laplante Ave","physical_configuration":"REGULAR","lat":43.6591666666667,"lon":-79.3855555555556,"altitude":0.0,"address":"Hayter St / Laplante Ave","capacity":15,"rental_methods":["KEY","CREDITCARD","TRANSITCARD","PHONE"],"groups":[],"obcn":"647-669-1302","nearby_distance":500.0},{"station_id":"7163","name":"Yonge St / Wood St","physical_configuration":"REGULAR","lat":43.6622222,"lon":-79.3825,"altitude":0.0,"address":"Yonge St / Wood St","capacity":15,"rental_methods":["KEY","CREDITCARD","TRANSITCARD","PHONE"],"groups":[],"obcn":"647-643-9754","nearby_distance":500.0},{"station_id":"7164","name":"Gould St / Yonge St (Ryerson University)","physical_configuration":"REGULAR","lat":43.657424,"lon":-79.381019,"altitude":0.0,"address":"Gould St / Yonge St (Ryerson University)","capacity":23,"rental_methods":["KEY","CREDITCARD","TRANSITCARD","PHONE"],"groups":[],"obcn":"647-292-0183","nearby_distance":500.0},{"station_id":"7167","name":"Queen St E / George St (Moss Park)","physical_configuration":"REGULAR","lat":43.6544444,"lon":-79.3711111111111,"altitude":0.0,"address":"Queen St E / George St (Moss Park)","capacity":17,"rental_methods":["KEY","CREDITCARD","TRANSITCARD","PHONE"],"groups":[],"obcn":"647-643-9747","nearby_distance":500.0},{"station_id":"7168","name":"Queens Quay / Yonge St","physical_configuration":"REGULAR","lat":43.641646,"lon":-79.375308,"altitude":0.0,"address":"Queens Quay / Yonge St","capacity":31,"rental_methods":["KEY","CREDITCARD","TRANSITCARD","PHONE"],"groups":[],"obcn":"647-643-9780","nearby_distance":500.0},{"station_id":"7169","name":"Front St W / Bay St (North Side)","physical_configuration":"REGULAR","lat":43.646162,"lon":-79.378912,"altitude":0.0,"address":"Front St W / Bay St (North Side)","capacity":11,"rental_methods":["KEY","CREDITCARD","TRANSITCARD","PHONE"],"groups":[],"obcn":"437-992-6547","nearby_distance":500.0},{"station_id":"7170","name":"Spadina Ave / Willcocks St","physical_configuration":"REGULAR","lat":43.6616667,"lon":-79.40138888888889,"altitude":0.0,"address":"Spadina Ave / Willcocks St","capacity":14,"rental_methods":["KEY","CREDITCARD","TRANSITCARD","PHONE"],"groups":[],"obcn":"647-293-0441","nearby_distance":500.0},{"station_id":"7171","name":"Ontario Place Blvd / Lakeshore Blvd W","physical_configuration":"REGULAR","lat":43.6322445,"lon":-79.4108105,"altitude":0.0,"address":"Ontario Place Blvd / Lakeshore Blvd W","capacity":27,"rental_methods":["KEY","CREDITCARD","TRANSITCARD","PHONE"],"groups":[],"obcn":"647-294-0390","nearby_distance":500.0},{"station_id":"7172","name":"Strachan Ave / Princes' Blvd","physical_configuration":"REGULAR","lat":43.635,"lon":-79.4088888888889,"altitude":0.0,"address":"Strachan Ave / Princes' Blvd","capacity":19,"rental_methods":["KEY","CREDITCARD","TRANSITCARD","PHONE"],"groups":[],"obcn":"647-294-5248","nearby_distance":500.0},{"station_id":"7173","name":"Cariboo St / Rail Path","physical_configuration":"REGULAR","lat":43.66666667,"lon":-79.45833333333334,"altitude":0.0,"address":"Cariboo St / Rail Path","capacity":19,"rental_methods":["KEY","CREDITCARD","TRANSITCARD","PHONE"],"groups":[],"obcn":"647-643-9769","nearby_distance":500.0},{"station_id":"7174","name":"Bloor St W / Dundas St W","physical_configuration":"REGULAR","lat":43.6563889,"lon":-79.45166666666667,"altitude":0.0,"address":"Bloor St W / Dundas St W","capacity":15,"rental_methods":["KEY","CREDITCARD","TRANSITCARD","PHONE"],"groups":[],"obcn":"647-296-3378","nearby_distance":500.0},{"station_id":"7175","name":"HTO Park (Queens Quay W)","physical_configuration":"REGULAR","lat":43.63796,"lon":-79.387502,"altitude":0.0,"address":"HTO Park (Queens Quay W)","capacity":27,"rental_methods":["KEY","CREDITCARD","TRANSITCARD","PHONE"],"groups":[],"obcn":"647-643-9853","nearby_distance":500.0},{"station_id":"7176","name":"Bathurst St / Fort York Blvd","physical_configuration":"REGULAR","lat":43.639179,"lon":-79.399595,"altitude":0.0,"address":"Bathurst St / Fort York Blvd","capacity":19,"rental_methods":["KEY","CREDITCARD","TRANSITCARD","PHONE"],"groups":[],"obcn":"647-643-9795","nearby_distance":500.0},{"station_id":"7177","name":"East Liberty St / Pirandello St","physical_configuration":"REGULAR","lat":43.6386111111111,"lon":-79.4147222222222,"altitude":0.0,"address":"East Liberty St / Pirandello St","capacity":19,"rental_methods":["KEY","CREDITCARD","TRANSITCARD","PHONE"],"groups":[],"obcn":"647-643-9861","nearby_distance":500.0},{"station_id":"7178","name":"Dundas St W / Edna Ave","physical_configuration":"REGULAR","lat":43.657192,"lon":-79.452559,"altitude":0.0,"address":"Dundas St W / Edna Ave","capacity":15,"rental_methods":["KEY","CREDITCARD","TRANSITCARD","PHONE"],"groups":[],"obcn":"647-643-9783","nearby_distance":500.0},{"station_id":"7179","name":"Bloor GO / UP Station (West Toronto Railpath)","physical_configuration":"REGULAR","lat":43.6575,"lon":-79.4502777777778,"altitude":0.0,"address":"Bloor GO / UP Station (West Toronto Railpath)","capacity":19,"rental_methods":["KEY","CREDITCARD","TRANSITCARD","PHONE"],"groups":[],"obcn":"647-298-1648","nearby_distance":500.0},{"station_id":"7180","name":"Lansdowne Subway Station","physical_configuration":"REGULAR","lat":43.6587734,"lon":-79.443054,"altitude":0.0,"address":"Lansdowne Ave / Wade Ave","capacity":23,"rental_methods":["KEY","CREDITCARD","TRANSITCARD","PHONE"],"groups":[],"obcn":"647-643-9759","nearby_distance":500.0},{"station_id":"7181","name":"Lansdowne Ave / Whytock Ave","physical_configuration":"REGULAR","lat":43.6538888888889,"lon":-79.4413888888889,"altitude":0.0,"address":"Lansdowne Ave / Whytock Ave","capacity":15,"rental_methods":["KEY","CREDITCARD","TRANSITCARD","PHONE"],"groups":[],"obcn":"647-295-6052","nearby_distance":500.0},{"station_id":"7182","name":"Sterling Rd / Dundas St W","physical_configuration":"REGULAR","lat":43.6508333333333,"lon":-79.4430555555556,"altitude":0.0,"address":"Sterling Rd / Dundas St W","capacity":19,"rental_methods":["KEY","CREDITCARD","TRANSITCARD","PHONE"],"groups":[],"obcn":"647-643-9791","nearby_distance":500.0},{"station_id":"7183","name":"St Clarens Ave / College St","physical_configuration":"REGULAR","lat":43.651238,"lon":-79.43868,"altitude":0.0,"address":"St Clarens Ave / College St","capacity":15,"rental_methods":["KEY","CREDITCARD","TRANSITCARD","PHONE"],"groups":[],"obcn":"647-300-6130","nearby_distance":500.0},{"station_id":"7184","name":"Ossington Ave / College St","physical_configuration":"REGULAR","lat":43.6544915,"lon":-79.422634,"altitude":0.0,"address":"Ossington Ave / College St","capacity":11,"rental_methods":["KEY","CREDITCARD","TRANSITCARD","PHONE"],"groups":[],"obcn":"647-643-9789","nearby_distance":500.0},{"station_id":"7188","name":"Exhibition GO (Atlantic Ave)","physical_configuration":"REGULAR","lat":43.6366666666667,"lon":-79.4197222222222,"altitude":0.0,"address":"Exhibition GO (Atlantic Ave)","capacity":23,"rental_methods":["KEY","CREDITCARD","TRANSITCARD","PHONE"],"groups":[],"obcn":"647-643-9764","nearby_distance":500.0},{"station_id":"7189","name":"Augusta Ave / Denison Sq","physical_configuration":"REGULAR","lat":43.653766,"lon":-79.4016759,"altitude":0.0,"address":"Augusta Ave / Denison Sq","capacity":14,"rental_methods":["KEY","CREDITCARD","TRANSITCARD","PHONE"],"groups":[],"obcn":"647-285-0348","nearby_distance":500.0},{"station_id":"7190","name":"St. George St / Hoskin Ave","physical_configuration":"REGULAR","lat":43.664059,"lon":-79.398334,"altitude":0.0,"address":"St. George St / Hoskin Ave","capacity":15,"rental_methods":["KEY","CREDITCARD","TRANSITCARD","PHONE"],"groups":[],"obcn":"647-669-1645","nearby_distance":500.0},{"station_id":"7191","name":"Central Tech  (Harbord St)","physical_configuration":"REGULAR","lat":43.661975,"lon":-79.407896,"altitude":0.0,"address":"Central Tech (Harbord St)","capacity":11,"rental_methods":["KEY","CREDITCARD","TRANSITCARD","PHONE"],"groups":[],"obcn":"647-643-9801","nearby_distance":500.0},{"station_id":"7192","name":"Harbord St / Clinton St","physical_configuration":"REGULAR","lat":43.660414,"lon":-79.415646,"altitude":0.0,"address":"Harbord St / Clinton St","capacity":15,"rental_methods":["KEY","CREDITCARD","TRANSITCARD","PHONE"],"groups":[],"obcn":"647-669-1501","nearby_distance":500.0},{"station_id":"7193","name":"Queen St W / Gladstone Ave","physical_configuration":"REGULAR","lat":43.6430555555556,"lon":-79.4275,"altitude":0.0,"address":"Queen St W / Gladstone Ave","capacity":15,"rental_methods":["KEY","CREDITCARD","TRANSITCARD","PHONE"],"groups":[],"obcn":"647-405-2875","nearby_distance":500.0},{"station_id":"7194","name":"Mortimer Ave / Coxwell Ave","physical_configuration":"REGULAR","lat":43.690564,"lon":-79.326319,"altitude":0.0,"address":"Mortimer Ave / Coxwell Ave","capacity":11,"rental_methods":["KEY","CREDITCARD","TRANSITCARD","PHONE"],"groups":[],"obcn":"647-669-1379","nearby_distance":500.0},{"station_id":"7195","name":"Ulster St / Bathurst St","physical_configuration":"REGULAR","lat":43.66,"lon":-79.4088888888889,"altitude":0.0,"address":"Ulster St / Bathurst St","capacity":11,"rental_methods":["KEY","CREDITCARD","TRANSITCARD","PHONE"],"groups":[],"obcn":"647-643-9821","nearby_distance":500.0},{"station_id":"7196","name":"Roxton Rd / Harbord St","physical_configuration":"REGULAR","lat":43.65905,"lon":-79.422988,"altitude":0.0,"address":"Roxton Rd / Harbord St","capacity":11,"rental_methods":["KEY","CREDITCARD","TRANSITCARD","PHONE"],"groups":[],"obcn":"647-643-9811","nearby_distance":500.0},{"station_id":"7197","name":"Queen St W / Dovercourt Rd","physical_configuration":"REGULAR","lat":43.6436111111111,"lon":-79.4225,"altitude":0.0,"address":"Queen St W / Dovercourt Rd","capacity":11,"rental_methods":["KEY","CREDITCARD","TRANSITCARD","PHONE"],"groups":[],"obcn":"647-643-9863","nearby_distance":500.0},{"station_id":"7198","name":"Queen St W / Cowan Ave","physical_configuration":"REGULAR","lat":43.6409,"lon":-79.432837,"altitude":0.0,"address":"Queen St W / Cowan Ave","capacity":19,"rental_methods":["KEY","CREDITCARD","TRANSITCARD","PHONE"],"groups":[],"obcn":"647-244-9310","nearby_distance":500.0},{"station_id":"7199","name":"College St / Markham St","physical_configuration":"REGULAR","lat":43.6563888888889,"lon":-79.4091666666667,"altitude":0.0,"address":"College St / Markham St","capacity":19,"rental_methods":["KEY","CREDITCARD","TRANSITCARD","PHONE"],"groups":[],"obcn":"647-643-9817","nearby_distance":500.0},{"station_id":"7202","name":"Queen St W / York St (City Hall)","physical_configuration":"REGULAR","lat":43.651667,"lon":-79.384167,"altitude":0.0,"address":"Queen St W / York St (City Hall)","capacity":23,"rental_methods":["KEY","CREDITCARD","TRANSITCARD","PHONE"],"groups":[],"obcn":"647-629-5943","nearby_distance":500.0},{"station_id":"7203","name":"Bathurst St/Queens Quay(Billy Bishop Airport)","physical_configuration":"REGULAR","lat":43.635492,"lon":-79.398253,"altitude":0.0,"address":"Bathurst St/Queens Quay(Billy Bishop Airport)","capacity":33,"rental_methods":["KEY","CREDITCARD","TRANSITCARD","PHONE"],"groups":[],"obcn":"647-669-4303","nearby_distance":500.0},{"station_id":"7204","name":"College St / Crawford St","physical_configuration":"REGULAR","lat":43.655,"lon":-79.418889,"altitude":0.0,"address":"College St / Crawford St","capacity":19,"rental_methods":["KEY","CREDITCARD","TRANSITCARD","PHONE"],"groups":[],"obcn":"647-530-9928","nearby_distance":500.0},{"station_id":"7205","name":"Rusholme Park Cres / College St","physical_configuration":"REGULAR","lat":43.65277778,"lon":-79.42972222,"altitude":0.0,"address":"Rusholme Park Cres / College St","capacity":15,"rental_methods":["KEY","CREDITCARD","TRANSITCARD","PHONE"],"groups":[],"obcn":"647-633-4094","nearby_distance":500.0},{"station_id":"7206","name":"Claremont St / Dundas St W","physical_configuration":"REGULAR","lat":43.651281,"lon":-79.411717,"altitude":0.0,"address":"Claremont St / Dundas St W","capacity":13,"rental_methods":["KEY","CREDITCARD","TRANSITCARD","PHONE"],"groups":[],"obcn":"647-530-5659","nearby_distance":500.0},{"station_id":"7207","name":"Dundas St W / Crawford St","physical_configuration":"REGULAR","lat":43.649722,"lon":-79.416944,"altitude":0.0,"address":"Dundas St W / Crawford St","capacity":19,"rental_methods":["KEY","CREDITCARD","TRANSITCARD","PHONE"],"groups":[],"obcn":"647-669-3017","nearby_distance":500.0},{"station_id":"7208","name":"80 Clinton St (North of College)","physical_configuration":"REGULAR","lat":43.656296,"lon":-79.414663,"altitude":0.0,"address":"80 Clinton St (North of College)","capacity":11,"rental_methods":["KEY","CREDITCARD","TRANSITCARD","PHONE"],"groups":[],"obcn":"647-530-1442","nearby_distance":500.0},{"station_id":"7209","name":"Ossington Ave / Harrison St","physical_configuration":"REGULAR","lat":43.651111111111106,"lon":-79.4213888888889,"altitude":0.0,"address":"Ossington Ave / Harrison St","capacity":19,"rental_methods":["KEY","CREDITCARD","TRANSITCARD","PHONE"],"groups":[],"obcn":"647-669-4279","nearby_distance":500.0},{"station_id":"7210","name":"Mary McCormick Rec Centre (Sheridan Ave)","physical_configuration":"REGULAR","lat":43.6475,"lon":-79.43305555555555,"altitude":0.0,"address":"Mary McCormick Rec Centre (Sheridan Ave)","capacity":15,"rental_methods":["KEY","CREDITCARD","TRANSITCARD","PHONE"],"groups":[],"obcn":"647-504-1948","nearby_distance":500.0},{"station_id":"7211","name":"Fort York Blvd / Garrison Rd","physical_configuration":"REGULAR","lat":43.6375,"lon":-79.40611111111112,"altitude":0.0,"address":"Fort York Blvd / Garrison Rd","capacity":15,"rental_methods":["KEY","CREDITCARD","TRANSITCARD","PHONE"],"groups":[],"obcn":"647-669-3872","nearby_distance":500.0},{"station_id":"7216","name":"Wellington St W / Stafford St","physical_configuration":"REGULAR","lat":43.641281,"lon":-79.409339,"altitude":0.0,"address":"Wellington St W / Stafford St","capacity":23,"rental_methods":["KEY","CREDITCARD","TRANSITCARD","PHONE"],"groups":[],"obcn":"647-643-9874","nearby_distance":500.0},{"station_id":"7217","name":"Soho St / Queen St W","physical_configuration":"REGULAR","lat":43.6494896,"lon":-79.393535,"altitude":0.0,"address":"Soho St. / Queen St W","capacity":19,"rental_methods":["KEY","CREDITCARD","TRANSITCARD","PHONE"],"groups":[],"obcn":"647-669-1785","nearby_distance":500.0},{"station_id":"7220","name":"Lakeshore Blvd W / Ellis Ave","physical_configuration":"REGULAR","lat":43.635932,"lon":-79.465083,"altitude":0.0,"address":"Lakeshore Blvd W / Ellis Ave","capacity":19,"rental_methods":["KEY","CREDITCARD","TRANSITCARD","PHONE"],"groups":[],"obcn":"647-502-8498","nearby_distance":1000.0},{"station_id":"7221","name":"High Park Subway Station","physical_configuration":"REGULAR","lat":43.6543604,"lon":-79.4655296,"altitude":0.0,"address":"High Park Subway Station","capacity":19,"rental_methods":["KEY","CREDITCARD","TRANSITCARD","PHONE"],"groups":[],"obcn":"647-669-0254","nearby_distance":1000.0},{"station_id":"7222","name":"Sunnyside - Gus Ryder Pool","physical_configuration":"REGULAR","lat":43.637894,"lon":-79.454823,"altitude":0.0,"address":"Sunnyside - Gus Ryder Pool","capacity":27,"rental_methods":["KEY","CREDITCARD","TRANSITCARD","PHONE"],"groups":[],"obcn":"647-339-2011","nearby_distance":1000.0},{"station_id":"7223","name":"Parkside Dr / Bloor St W - SMART","physical_configuration":"SMARTMAPFRAME","lat":43.654501,"lon":-79.460053,"altitude":0.0,"address":"Parkside Dr / Bloor St W","capacity":12,"rental_methods":["KEY","TRANSITCARD","PHONE"],"groups":["SMART MAP FRAME"],"obcn":"647-669-0176","nearby_distance":1000.0},{"station_id":"7224","name":"Bloor St W / High Park Ave (High Park)","physical_configuration":"REGULAR","lat":43.6535269,"lon":-79.4650569,"altitude":0.0,"address":"Bloor St W / High Park Ave (High Park)","capacity":19,"rental_methods":["KEY","CREDITCARD","TRANSITCARD","PHONE"],"groups":[],"obcn":"647-405-1809","nearby_distance":1000.0},{"station_id":"7225","name":"Lakeshore Blvd W / Windermere Ave","physical_configuration":"REGULAR","lat":43.634896,"lon":-79.467763,"altitude":0.0,"address":"Lakeshore Blvd W / Windermere Ave","capacity":19,"rental_methods":["KEY","CREDITCARD","TRANSITCARD","PHONE"],"groups":[],"obcn":"647-330-4430","nearby_distance":1000.0},{"station_id":"7226","name":"Lakeshore Blvd W / The Boulevard Club","physical_configuration":"REGULAR","lat":43.636731,"lon":-79.444966,"altitude":0.0,"address":"Lakeshore Blvd W / The Boulevard Club","capacity":19,"rental_methods":["KEY","CREDITCARD","TRANSITCARD","PHONE"],"groups":[],"obcn":"647-643-9869","nearby_distance":1000.0},{"station_id":"7227","name":"Martin Goodman Trail (Marilyn Bell Park)","physical_configuration":"REGULAR","lat":43.6314,"lon":-79.4304,"altitude":0.0,"address":"Martin Goodman Trail (Marilyn Bell Park)","capacity":14,"rental_methods":["KEY","CREDITCARD","TRANSITCARD","PHONE"],"groups":[],"obcn":"647-338-5620","nearby_distance":1000.0},{"station_id":"7228","name":"Queen St W / Roncesvalles Ave","physical_configuration":"REGULAR","lat":43.638399,"lon":-79.4464436,"altitude":0.0,"address":"Queen St W / Roncesvalles Ave","capacity":19,"rental_methods":["KEY","CREDITCARD","TRANSITCARD","PHONE"],"groups":[],"obcn":"647-669-0897","nearby_distance":1000.0},{"station_id":"7229","name":"Dundas St W / Roncesvalles Green P - SMART","physical_configuration":"SMARTMAPFRAME","lat":43.6534268,"lon":-79.4512787,"altitude":0.0,"address":"Dundas St W / Roncesvalles Green P","capacity":12,"rental_methods":["KEY","TRANSITCARD","PHONE"],"groups":["SMART MAP FRAME"],"obcn":"437-992-7377","nearby_distance":1000.0},{"station_id":"7230","name":"Garden Ave / Roncesvalles Ave","physical_configuration":"REGULAR","lat":43.643769,"lon":-79.447915,"altitude":0.0,"address":"Garden Ave / Roncesvalles Ave","capacity":19,"rental_methods":["KEY","CREDITCARD","TRANSITCARD","PHONE"],"groups":[],"obcn":"647-669-0128","nearby_distance":1000.0},{"station_id":"7231","name":"Wright / Sorauren (Sorauren Park) - SMART","physical_configuration":"SMARTMAPFRAME","lat":43.646677,"lon":-79.442741,"altitude":0.0,"address":"Wright Ave / Sorauren St (Sorauren Park)","capacity":18,"rental_methods":["KEY","TRANSITCARD","PHONE"],"groups":["SMART MAP FRAME"],"obcn":"437-992-0663","nearby_distance":1000.0},{"station_id":"7232","name":"Queen St W  /  Fuller Ave - SMART","physical_configuration":"SMARTMAPFRAME","lat":43.640255,"lon":-79.439223,"altitude":0.0,"address":"Queen St W / Fuller Ave","capacity":16,"rental_methods":["KEY","TRANSITCARD","PHONE"],"groups":["SMART MAP FRAME"],"obcn":"647-669-0539","nearby_distance":1000.0},{"station_id":"7233","name":"King / Cowan Ave - SMART","physical_configuration":"SMARTMAPFRAME","lat":43.637922,"lon":-79.431734,"altitude":0.0,"address":"King St W / Cowan Ave","capacity":16,"rental_methods":["KEY","TRANSITCARD","PHONE"],"groups":["SMART MAP FRAME"],"obcn":"647-669-3856","nearby_distance":1000.0},{"station_id":"7234","name":"Roncesvalles Ave / Marmaduke St","physical_configuration":"REGULAR","lat":43.650492,"lon":-79.450842,"altitude":0.0,"address":"Roncesvalles Ave / Marmaduke St","capacity":19,"rental_methods":["KEY","CREDITCARD","TRANSITCARD","PHONE"],"groups":[],"obcn":"647-400-6814","nearby_distance":1000.0},{"station_id":"7235","name":"Bay St / College St (West Side) - SMART","physical_configuration":"SMARTMAPFRAME","lat":43.660087,"lon":-79.385655,"altitude":0.0,"address":"Bay St / College St (West Side)","capacity":12,"rental_methods":["KEY","TRANSITCARD","PHONE"],"groups":["SMART MAP FRAME"],"obcn":"437-992-0779","nearby_distance":1000.0},{"station_id":"7236","name":"Thompson St / Broadview Ave - SMART","physical_configuration":"SMARTMAPFRAME","lat":43.659471,"lon":-79.350325,"altitude":0.0,"address":"Thompson St / Broadview Ave","capacity":12,"rental_methods":["KEY","TRANSITCARD","PHONE"],"groups":["SMART MAP FRAME"],"obcn":"437-992-2970","nearby_distance":1000.0},{"station_id":"7237","name":"Ward Ave / Wallace Ave","physical_configuration":"REGULAR","lat":43.662251,"lon":-79.446036,"altitude":0.0,"address":"Ward Ave / Wallace Ave","capacity":15,"rental_methods":["KEY","CREDITCARD","TRANSITCARD","PHONE"],"groups":[],"obcn":"647-643-9824","nearby_distance":1000.0},{"station_id":"7238","name":"Sorauren/Geoffrey (Sorauren Park) - SMART","physical_configuration":"SMARTMAPFRAME","lat":43.649172,"lon":-79.4445087,"altitude":0.0,"address":"Sorauren St / Geoffrey St (Sorauren Park)","capacity":16,"rental_methods":["KEY","TRANSITCARD","PHONE"],"groups":["SMART MAP FRAME"],"obcn":"437-992-0948","nearby_distance":1000.0},{"station_id":"7239","name":"Bloor St W / Manning Ave - SMART","physical_configuration":"SMARTMAPFRAME","lat":43.663912,"lon":-79.416124,"altitude":0.0,"address":"Bloor St W / Manning Ave","capacity":20,"rental_methods":["KEY","TRANSITCARD","PHONE"],"groups":["SMART MAP FRAME"],"obcn":"437-992-4514","nearby_distance":1000.0},{"station_id":"7240","name":"Bloor St W / Shaw Ave - SMART","physical_configuration":"SMARTMAPFRAME","lat":43.662403,"lon":-79.423098,"altitude":0.0,"address":"Bloor St W / Shaw Ave","capacity":34,"rental_methods":["KEY","TRANSITCARD","PHONE"],"groups":["SMART MAP FRAME"],"obcn":"437-992-3508","nearby_distance":1000.0},{"station_id":"7241","name":"519 Church St - SMART","physical_configuration":"SMARTMAPFRAME","lat":43.666805,"lon":-79.381288,"altitude":0.0,"address":"519 Church St","capacity":12,"rental_methods":["KEY","TRANSITCARD","PHONE"],"groups":["SMART MAP FRAME"],"obcn":"437-992-6115","nearby_distance":1000.0},{"station_id":"7242","name":"Lakeshore Blvd W / Ontario Dr","physical_configuration":"REGULAR","lat":43.630254,"lon":-79.420317,"altitude":0.0,"address":"Lakeshore Blvd W / Ontario Dr (Ontario Place)","capacity":35,"rental_methods":["KEY","CREDITCARD","TRANSITCARD","PHONE"],"groups":[],"obcn":"647-669-1038","nearby_distance":1000.0},{"station_id":"7243","name":"Exhibition GO Station","physical_configuration":"REGULAR","lat":43.6356551,"lon":-79.4184785,"altitude":0.0,"address":"Exhibition GO Station","capacity":15,"rental_methods":["KEY","CREDITCARD","TRANSITCARD","PHONE"],"groups":[],"obcn":"647-404-4533","nearby_distance":1000.0},{"station_id":"7244","name":"Dufferin Gate - SMART","physical_configuration":"SMARTMAPFRAME","lat":43.633473,"lon":-79.425679,"altitude":0.0,"address":"Dufferin Gate","capacity":16,"rental_methods":["KEY","TRANSITCARD","PHONE"],"groups":["SMART MAP FRAME"],"obcn":"647-669-0734","nearby_distance":1000.0},{"station_id":"7245","name":"Tecumseth St / Queen St W - SMART","physical_configuration":"SMARTMAPFRAME","lat":43.646552,"lon":-79.406468,"altitude":0.0,"address":"Tecumseth St / Queen St W","capacity":9,"rental_methods":["KEY","TRANSITCARD","PHONE"],"groups":["SMART MAP FRAME"],"obcn":"437-992-2358","nearby_distance":1000.0},{"station_id":"7246","name":"Yonge St / Bloor St","physical_configuration":"REGULAR","lat":43.669969,"lon":-79.386532,"altitude":0.0,"address":"Yonge St / Bloor St","capacity":14,"rental_methods":["KEY","CREDITCARD","TRANSITCARD","PHONE"],"groups":[],"obcn":"647-669-3238","nearby_distance":1000.0},{"station_id":"7247","name":"Howard Park Ave / Dundas St W - SMART","physical_configuration":"SMARTMAPFRAME","lat":43.6521,"lon":-79.4486,"altitude":0.0,"address":"Howard Park Ave / Dundas St W","capacity":12,"rental_methods":["KEY","TRANSITCARD","PHONE"],"groups":["SMART MAP FRAME"],"obcn":"437-992-0352","nearby_distance":1000.0},{"station_id":"7248","name":"Baldwin Ave / Spadina Ave - SMART","physical_configuration":"SMARTMAPFRAME","lat":43.654905,"lon":-79.398448,"altitude":0.0,"address":"Baldwin Ave / Spadina Ave","capacity":20,"rental_methods":["KEY","TRANSITCARD","PHONE"],"groups":["SMART MAP FRAME"],"obcn":"437-992-0713","nearby_distance":1000.0},{"station_id":"7249","name":"Dovercourt Rd / Harrison St (Green P) - SMART","physical_configuration":"SMARTMAPFRAME","lat":43.651145,"lon":-79.423742,"altitude":0.0,"address":"Dovercourt Rd / Harrison St (Green P) - SMART","capacity":12,"rental_methods":["KEY","TRANSITCARD","PHONE"],"groups":["SMART MAP FRAME"],"obcn":"437-992-5539","nearby_distance":1000.0},{"station_id":"7250","name":"St. George St / Russell St - SMART","physical_configuration":"SMARTMAPFRAME","lat":43.660296,"lon":-79.397107,"altitude":0.0,"address":"St. George St / Russell St","capacity":12,"rental_methods":["KEY","TRANSITCARD","PHONE"],"groups":["SMART MAP FRAME"],"obcn":"647-338-0572","nearby_distance":1000.0},{"station_id":"7251","name":"The Royal Ontario Museum (Bloor St Entrance)","physical_configuration":"REGULAR","lat":43.668561,"lon":-79.394403,"altitude":0.0,"address":"The Royal Ontario Museum (Bloor St Entrance)","capacity":19,"rental_methods":["KEY","CREDITCARD","TRANSITCARD","PHONE"],"groups":[],"obcn":"647-402-3730","nearby_distance":1000.0},{"station_id":"7252","name":"Robert St / Bloor St W - SMART","physical_configuration":"SMARTMAPFRAME","lat":43.665846,"lon":-79.404998,"altitude":0.0,"address":"Robert St / Bloor St W","capacity":18,"rental_methods":["KEY","TRANSITCARD","PHONE"],"groups":["SMART MAP FRAME"],"obcn":"437-9924908","nearby_distance":1000.0},{"station_id":"7253","name":"John St  / Mercer St - SMART","physical_configuration":"SMARTMAPFRAME","lat":43.6461,"lon":-79.3895,"altitude":0.0,"address":"John St / Mercer St - SMART","capacity":12,"rental_methods":["KEY","TRANSITCARD","PHONE"],"groups":["SMART MAP FRAME"],"obcn":"647-649-4986","nearby_distance":1000.0},{"station_id":"7254","name":"Borden St / Bloor St W - SMART","physical_configuration":"SMARTMAPFRAME","lat":43.665461,"lon":-79.40848,"altitude":0.0,"address":"Borden St / Bloor St W","capacity":12,"rental_methods":["KEY","TRANSITCARD","PHONE"],"groups":["SMART MAP FRAME"],"obcn":"437-992-6306","nearby_distance":1000.0},{"station_id":"7255","name":"Stewart St / Bathurst St  - SMART","physical_configuration":"SMARTMAPFRAME","lat":43.643307,"lon":-79.402176,"altitude":0.0,"address":"Stewart St / Bathurst St","capacity":16,"rental_methods":["KEY","TRANSITCARD","PHONE"],"groups":["SMART MAP FRAME"],"obcn":"437-992-4272","nearby_distance":1000.0},{"station_id":"7256","name":"Vanauley St / Queen St W - SMART","physical_configuration":"SMARTMAPFRAME","lat":43.648437,"lon":-79.39838,"altitude":0.0,"address":"Vanauley St / Queen St W","capacity":9,"rental_methods":["KEY","TRANSITCARD","PHONE"],"groups":["SMART MAP FRAME"],"obcn":"437-992-6550","nearby_distance":1000.0},{"station_id":"7257","name":"Dundas St W / St. Patrick St","physical_configuration":"REGULAR","lat":43.6545174,"lon":-79.3895315,"altitude":0.0,"address":"Dundas St W / St. Patrick St","capacity":19,"rental_methods":["KEY","CREDITCARD","TRANSITCARD","PHONE"],"groups":[],"obcn":"647-400-9727","nearby_distance":1000.0},{"station_id":"7258","name":"Queen St E / Larchmount Ave","physical_configuration":"REGULAR","lat":43.662279,"lon":-79.334166,"altitude":0.0,"address":"Queen St E / Larchmount Ave","capacity":25,"rental_methods":["KEY","CREDITCARD","TRANSITCARD","PHONE"],"groups":[],"obcn":"647-504-9410","nearby_distance":1000.0},{"station_id":"7259","name":"Lower Spadina Ave / Lakeshore Blvd","physical_configuration":"REGULAR","lat":43.638497,"lon":-79.39192,"altitude":0.0,"address":"Lower Spadina Ave / Lakeshore Blvd W","capacity":19,"rental_methods":["KEY","CREDITCARD","TRANSITCARD","PHONE"],"groups":[],"obcn":"647-402-7126","nearby_distance":1000.0},{"station_id":"7260","name":"Spadina Ave / Adelaide St W","physical_configuration":"REGULAR","lat":43.646688,"lon":-79.395267,"altitude":0.0,"address":"Spadina Ave / Adelaide St W","capacity":15,"rental_methods":["KEY","CREDITCARD","TRANSITCARD","PHONE"],"groups":[],"obcn":"647-712-8927","nearby_distance":1000.0},{"station_id":"7261","name":"Queens Quay E / Lower Sherbourne St","physical_configuration":"REGULAR","lat":43.645215,"lon":-79.364898,"altitude":0.0,"address":"Queens Quay E / Lower Sherbourne","post_code":"M5A 3Y4","capacity":25,"rental_methods":["KEY","CREDITCARD","TRANSITCARD","PHONE"],"groups":[],"obcn":"437-688-8691","nearby_distance":1000.0},{"station_id":"7262","name":"Wychwood Ave / Benson Ave - SMART","physical_configuration":"SMARTMAPFRAME","lat":43.6809164,"lon":-79.4229684,"altitude":0.0,"address":"Wychwood Ave / Benson Ave","capacity":16,"rental_methods":["KEY","TRANSITCARD","PHONE"],"groups":["SMART MAP FRAME"],"obcn":"437-992-6472","nearby_distance":1000.0},{"station_id":"7263","name":"Walton St / Elizabeth St - SMART","physical_configuration":"SMARTMAPFRAME","lat":43.657838,"lon":-79.38631,"altitude":0.0,"address":"Walton St / Elizabeth St","post_code":"M8Z4T4","capacity":20,"rental_methods":["KEY","TRANSITCARD","PHONE"],"groups":["SMART MAP FRAME"],"obcn":"437-992-6002","nearby_distance":1000.0},{"station_id":"7264","name":"Bloor St E / Huntley St - SMART","physical_configuration":"SMARTMAPFRAME","lat":43.671535,"lon":-79.379173,"altitude":0.0,"address":"Bloor St E / Huntley St","capacity":16,"rental_methods":["KEY","TRANSITCARD","PHONE"],"groups":["SMART MAP FRAME"],"obcn":"437-992-3239","nearby_distance":1000.0},{"station_id":"7265","name":"Wallace Ave / Symington Ave - SMART","physical_configuration":"SMARTMAPFRAME","lat":43.661324,"lon":-79.449534,"altitude":0.0,"address":"Wallace Ave / Symington Ave","capacity":12,"rental_methods":["KEY","TRANSITCARD","PHONE"],"groups":["SMART MAP FRAME"],"obcn":"437-992-0966","nearby_distance":1000.0},{"station_id":"7266","name":"Victoria Park Subway Station - SMART","physical_configuration":"SMARTMAPFRAME","lat":43.6940155,"lon":-79.2889842,"altitude":0.0,"address":"Victoria Park Subway Station","capacity":20,"rental_methods":["KEY","TRANSITCARD","PHONE"],"groups":["SMART MAP FRAME"],"obcn":"437-992-7115","nearby_distance":1000.0},{"station_id":"7267","name":"Dundas St E / Pembroke St - SMART","physical_configuration":"SMARTMAPFRAME","lat":43.658295,"lon":-79.372346,"altitude":0.0,"address":"Dundas St E / Pembroke St","capacity":16,"rental_methods":["KEY","TRANSITCARD","PHONE"],"groups":["SMART MAP FRAME"],"obcn":"437-992-1458","nearby_distance":1000.0},{"station_id":"7268","name":"111 Bond St (North of Dundas St E)  - SMART","physical_configuration":"SMARTMAPFRAME","lat":43.656927,"lon":-79.378497,"altitude":0.0,"address":"111 Bond St (North of Dundas St E)","capacity":16,"rental_methods":["KEY","TRANSITCARD","PHONE"],"groups":["SMART MAP FRAME"],"obcn":"437-992-1826","nearby_distance":1000.0},{"station_id":"7269","name":"Toronto Eaton Centre (Yonge St)","physical_configuration":"REGULAR","lat":43.655431,"lon":-79.380653,"altitude":0.0,"address":"Toronto Eaton Centre (Yonge St)","capacity":14,"rental_methods":["KEY","CREDITCARD","TRANSITCARD","PHONE"],"groups":[],"obcn":"647-669-0729","nearby_distance":1000.0},{"station_id":"7270","name":"Church St / Dundas St E - SMART","physical_configuration":"SMARTMAPFRAME","lat":43.657024,"lon":-79.377257,"altitude":0.0,"address":"Church St / Dundas St E","capacity":15,"rental_methods":["KEY","TRANSITCARD","PHONE"],"groups":["SMART MAP FRAME"],"obcn":"437-992-0805","nearby_distance":1000.0},{"station_id":"7271","name":"Yonge St / Alexander St - SMART","physical_configuration":"SMARTMAPFRAME","lat":43.662862,"lon":-79.383572,"altitude":0.0,"address":"Yonge St / Alexander St","capacity":8,"rental_methods":["KEY","TRANSITCARD","PHONE"],"groups":["SMART MAP FRAME"],"obcn":"437-992-3627","nearby_distance":1000.0},{"station_id":"7272","name":"Yonge St / Dundonald St - SMART","physical_configuration":"REGULAR","lat":43.665801,"lon":-79.384796,"altitude":0.0,"address":"Yonge St / Dundonald St","capacity":12,"rental_methods":["KEY","CREDITCARD","TRANSITCARD","PHONE"],"groups":["SMART MAP FRAME"],"obcn":"437-992-6086","nearby_distance":1000.0},{"station_id":"7273","name":"Bay St / Charles St - SMART","physical_configuration":"SMARTMAPFRAME","lat":43.668153,"lon":-79.38891,"altitude":0.0,"address":"Bay St / Charles St W","capacity":20,"rental_methods":["KEY","TRANSITCARD","PHONE"],"groups":["SMART MAP FRAME"],"obcn":"437-992-7265","nearby_distance":1000.0},{"station_id":"7274","name":"Queen's Park Cres E / Grosvenor St - SMART","physical_configuration":"SMARTMAPFRAME","lat":43.661803,"lon":-79.389682,"altitude":0.0,"address":"Queen's Park Cres E / Grosvenor St","capacity":12,"rental_methods":["KEY","TRANSITCARD","PHONE"],"groups":["SMART MAP FRAME"],"obcn":"437-992-0939","nearby_distance":1000.0},{"station_id":"7275","name":"Queen St W / James St","physical_configuration":"REGULAR","lat":43.652276,"lon":-79.380701,"altitude":0.0,"address":"Queen St W / James St","capacity":11,"rental_methods":["KEY","CREDITCARD","TRANSITCARD","PHONE"],"groups":[],"obcn":"647-669-4331","nearby_distance":1000.0},{"station_id":"7276","name":"Bloor St W / Balmuto St","physical_configuration":"REGULAR","lat":43.669903,"lon":-79.387802,"altitude":0.0,"address":"Bloor St W / Balmuto St","capacity":11,"rental_methods":["KEY","CREDITCARD","TRANSITCARD","PHONE"],"groups":[],"obcn":"647-669-4314","nearby_distance":1000.0},{"station_id":"7277","name":"Chorley Park - SMART","physical_configuration":"SMARTMAPFRAME","lat":43.6856,"lon":-79.3718,"altitude":0.0,"address":"Chorley Park","capacity":12,"rental_methods":["KEY","TRANSITCARD","PHONE"],"groups":["SMART MAP FRAME"],"obcn":"437-992-0849","nearby_distance":1000.0},{"station_id":"7278","name":"Mallon Ave / Jones Ave -SMART","physical_configuration":"SMARTMAPFRAME","lat":43.66587,"lon":-79.33443,"altitude":0.0,"address":"Mallon Ave / Jones Ave","post_code":"M4M2Z1","capacity":15,"rental_methods":["KEY","TRANSITCARD","PHONE"],"groups":["SMART MAP FRAME"],"obcn":"437-992-0901","nearby_distance":1000.0},{"station_id":"7279","name":"Rosehill Ave / Avoca Ave - SMART","physical_configuration":"SMARTMAPFRAME","lat":43.687999,"lon":-79.38906,"altitude":0.0,"address":"Rosehill Ave / Avoca Ave","capacity":16,"rental_methods":["KEY","TRANSITCARD","PHONE"],"groups":["SMART MAP FRAME"],"obcn":"437-992-6053","nearby_distance":1000.0},{"station_id":"7280","name":"Charles St E / Jarvis St - SMART","physical_configuration":"SMARTMAPFRAME","lat":43.669604,"lon":-79.381171,"altitude":0.0,"address":"Charles St E / Jarvis St","capacity":20,"rental_methods":["KEY","TRANSITCARD","PHONE"],"groups":["SMART MAP FRAME"],"obcn":"437-992-7283","nearby_distance":1000.0},{"station_id":"7281","name":"Charles St W / Balmuto St - SMART","physical_configuration":"SMARTMAPFRAME","lat":43.668427,"lon":-79.38725,"altitude":0.0,"address":"Charles St W / Balmuto St","capacity":16,"rental_methods":["KEY","TRANSITCARD","PHONE"],"groups":["SMART MAP FRAME"],"obcn":"437-992-2844","nearby_distance":1000.0},{"station_id":"7282","name":"Adelaide St W / Bay St - SMART","physical_configuration":"SMARTMAPFRAME","lat":43.650152,"lon":-79.379856,"altitude":0.0,"address":"Adelaide St W / Bay St","capacity":20,"rental_methods":["KEY","TRANSITCARD","PHONE"],"groups":["SMART MAP FRAME"],"obcn":"437-992-6479","nearby_distance":1000.0},{"station_id":"7283","name":"Front St W / Bay St (South Side)","physical_configuration":"REGULAR","lat":43.64595,"lon":-79.378761,"altitude":0.0,"address":"Front St W / Bay St (South Side)","capacity":19,"rental_methods":["KEY","CREDITCARD","TRANSITCARD","PHONE"],"groups":[],"obcn":"647-388-9361","nearby_distance":1000.0},{"station_id":"7284","name":"York St / King St W - SMART","physical_configuration":"SMARTMAPFRAME","lat":43.648,"lon":-79.3834,"altitude":0.0,"address":"York St / King St W","capacity":16,"rental_methods":["KEY","TRANSITCARD","PHONE"],"groups":["SMART MAP FRAME"],"obcn":"437-992-4749","nearby_distance":1000.0},{"station_id":"7285","name":"Spadina Ave / Harbord St - SMART","physical_configuration":"SMARTMAPFRAME","lat":43.6629228,"lon":-79.4018451,"altitude":0.0,"address":"Spadina Ave / Harbord St","capacity":12,"rental_methods":["KEY","TRANSITCARD","PHONE"],"groups":["SMART MAP FRAME"],"obcn":"437-992-6585","nearby_distance":1000.0},{"station_id":"7286","name":"Gerrard St E / Broadview - SMART","physical_configuration":"SMARTMAPFRAME","lat":43.665656,"lon":-79.352055,"altitude":0.0,"address":"Gerrard St E / Broadview","capacity":18,"rental_methods":["KEY","TRANSITCARD","PHONE"],"groups":["SMART MAP FRAME"],"obcn":"437-992-0777","nearby_distance":1000.0},{"station_id":"7287","name":"Queen St E / Pape Ave - SMART","physical_configuration":"SMARTMAPFRAME","lat":43.661673,"lon":-79.337789,"altitude":0.0,"address":"Queen St E / Pape Ave","capacity":8,"rental_methods":["KEY","TRANSITCARD","PHONE"],"groups":["SMART MAP FRAME"],"obcn":"437-992-0758","nearby_distance":1000.0},{"station_id":"7288","name":"Humber Bay Shores Park West","physical_configuration":"REGULAR","lat":43.6224434,"lon":-79.480284,"altitude":0.0,"address":"Humber Bay Shores Park West","capacity":31,"rental_methods":["KEY","CREDITCARD","TRANSITCARD","PHONE"],"groups":[],"obcn":"647-643-9762","nearby_distance":1000.0},{"station_id":"7289","name":"Humber Bay Shores Park East","physical_configuration":"REGULAR","lat":43.6308933,"lon":-79.4722622,"altitude":0.0,"address":"Humber Bay Shores Park East","capacity":23,"rental_methods":["KEY","CREDITCARD","TRANSITCARD","PHONE"],"groups":[],"obcn":"647-643-9740","nearby_distance":1000.0},{"station_id":"7291","name":"Lakeshore Blvd E / Parliament St","physical_configuration":"REGULAR","lat":43.647562,"lon":-79.36138,"altitude":0.0,"address":"Lakeshore Blvd E / Parliament St","capacity":15,"rental_methods":["KEY","CREDITCARD","TRANSITCARD","PHONE"],"groups":[],"obcn":"437-770-9931","nearby_distance":1000.0},{"station_id":"7292","name":"Granby St / Church St - SMART","physical_configuration":"SMARTMAPFRAME","lat":43.6605302,"lon":-79.3787235,"altitude":0.0,"address":"Granby St / Church St -SMART","capacity":12,"rental_methods":["KEY","TRANSITCARD","PHONE"],"groups":["SMART MAP FRAME"],"obcn":"647-309-0035","nearby_distance":1000.0},{"station_id":"7293","name":"College St / McCaul St","physical_configuration":"REGULAR","lat":43.65906,"lon":-79.393771,"altitude":0.0,"address":"College St / McCaul St","capacity":17,"rental_methods":["KEY","CREDITCARD","TRANSITCARD","PHONE"],"groups":[],"obcn":"647-401-2884","nearby_distance":1000.0},{"station_id":"7296","name":"Westmoreland Ave / Fernbank Ave","physical_configuration":"REGULAR","lat":43.665327,"lon":-79.43235,"altitude":0.0,"address":"Westmoreland Ave / Fernbank Ave","capacity":19,"rental_methods":["KEY","CREDITCARD","TRANSITCARD","PHONE"],"groups":[],"obcn":"437-771-6958","nearby_distance":1000.0},{"station_id":"7297","name":"Havelock St / Dufferin Park","physical_configuration":"REGULAR","lat":43.657343,"lon":-79.43112,"altitude":0.0,"address":"Havelock St / Dufferin Park","capacity":19,"rental_methods":["KEY","CREDITCARD","TRANSITCARD","PHONE"],"groups":[],"obcn":"437-772-3680","nearby_distance":1000.0},{"station_id":"7298","name":"Bathurst St / Adelaide St W","physical_configuration":"REGULAR","lat":43.645324,"lon":-79.40345,"altitude":0.0,"address":"Bathurst St / Adelaide St W","capacity":25,"rental_methods":["KEY","CREDITCARD","TRANSITCARD","PHONE"],"groups":[],"obcn":"437-776-9943","nearby_distance":1000.0},{"station_id":"7299","name":"Mill St / Parliament St","physical_configuration":"REGULAR","lat":43.650256,"lon":-79.36163,"altitude":0.0,"address":"Mill St / Parliament St","capacity":15,"rental_methods":["KEY","CREDITCARD","TRANSITCARD","PHONE"],"groups":[],"obcn":"437-922-8965","nearby_distance":1000.0},{"station_id":"7301","name":"Primrose Ave / Davenport Rd","physical_configuration":"REGULAR","lat":43.67142,"lon":-79.445947,"altitude":0.0,"address":"Primrose Ave / Davenport Rd","capacity":15,"rental_methods":["KEY","CREDITCARD","TRANSITCARD","PHONE"],"groups":[],"obcn":"437-928-7044","nearby_distance":1000.0},{"station_id":"7302","name":"Winona Dr / Davenport Rd","physical_configuration":"REGULAR","lat":43.674923,"lon":-79.430465,"altitude":0.0,"address":"Winona Dr / Davenport Rd","capacity":11,"rental_methods":["KEY","CREDITCARD","TRANSITCARD","PHONE"],"groups":[],"obcn":"647-308-8067","nearby_distance":1000.0},{"station_id":"7303","name":"Queen St. E / Woodward Av","physical_configuration":"REGULAR","lat":43.665269,"lon":-79.319796,"altitude":0.0,"address":"Queen St. E / Woodward Av","capacity":19,"rental_methods":["KEY","CREDITCARD","TRANSITCARD","PHONE"],"groups":[],"obcn":"437-990-2838","nearby_distance":1000.0},{"station_id":"7309","name":"Queen St. E / Rhodes Ave.","physical_configuration":"REGULAR","lat":43.666224,"lon":-79.317693,"altitude":0.0,"address":"Queen St. E / Rhodes Ave.","capacity":23,"rental_methods":["KEY","CREDITCARD","TRANSITCARD","PHONE"],"groups":[],"obcn":"647-308-0520","nearby_distance":1000.0},{"station_id":"7311","name":"Sherbourne St / Isabella St","physical_configuration":"REGULAR","lat":43.669576,"lon":-79.375961,"altitude":0.0,"address":"Sherbourne St / Isabella St","capacity":15,"rental_methods":["KEY","CREDITCARD","TRANSITCARD","PHONE"],"groups":[],"obcn":"437-991-5923","nearby_distance":1000.0},{"station_id":"7312","name":"Amelia St. / Sumach St.","physical_configuration":"REGULAR","lat":43.66852,"lon":-79.363525,"altitude":0.0,"address":"Amelia St. / Sumach St.","capacity":11,"rental_methods":["KEY","CREDITCARD","TRANSITCARD","PHONE"],"groups":[],"obcn":"437-991-7841","nearby_distance":1000.0},{"station_id":"7313","name":"Coxwell Ave/  Lakeshore Blvd E","physical_configuration":"REGULAR","lat":43.662771,"lon":-79.315223,"altitude":0.0,"address":"Coxwell Ave / Lakeshore Blvd E","capacity":15,"rental_methods":["KEY","CREDITCARD","TRANSITCARD","PHONE"],"groups":[],"obcn":"437-994-6254","nearby_distance":1000.0},{"station_id":"7314","name":"Queen St. E / Eastern Ave","physical_configuration":"REGULAR","lat":43.667208,"lon":-79.312315,"altitude":0.0,"address":"Queen St. E / Eastern Ave","capacity":15,"rental_methods":["KEY","CREDITCARD","TRANSITCARD","PHONE"],"groups":[],"obcn":"437-995-6804","nearby_distance":1000.0},{"station_id":"7315","name":"Queen St E / Hammersmith Ave","physical_configuration":"REGULAR","lat":43.671349,"lon":-79.29451,"altitude":0.0,"address":"Queen St E / Hammersmith Ave","capacity":11,"rental_methods":["KEY","CREDITCARD","TRANSITCARD","PHONE"],"groups":[],"obcn":"437-995-8093","nearby_distance":1000.0},{"station_id":"7316","name":"Queen St. E / Spruce Hill Rd.","physical_configuration":"REGULAR","lat":43.672571,"lon":-79.289,"altitude":0.0,"address":"Queen St. E / Spruce Hill Rd.","capacity":14,"rental_methods":["KEY","CREDITCARD","TRANSITCARD","PHONE"],"groups":[],"obcn":"437-997-7187","nearby_distance":1000.0},{"station_id":"7317","name":"Hubbard Blvd / Balsam Av","physical_configuration":"REGULAR","lat":43.669328,"lon":-79.288949,"altitude":0.0,"address":"Hubbard Blvd / Balsam Av","capacity":19,"rental_methods":["KEY","CREDITCARD","TRANSITCARD","PHONE"],"groups":[],"obcn":"437-999-2694","nearby_distance":1000.0},{"station_id":"7318","name":"Hubbard Blvd. / Glen Manor Dr.","physical_configuration":"REGULAR","lat":43.668633,"lon":-79.291162,"altitude":0.0,"address":"Hubbard Blvd. / Glen Manor Dr.","capacity":15,"rental_methods":["KEY","CREDITCARD","TRANSITCARD","PHONE"],"groups":[],"obcn":"647-283-9121","nearby_distance":1000.0},{"station_id":"7319","name":"Lakeshore Blvd E / Knox Ave","physical_configuration":"REGULAR","lat":43.660206,"lon":-79.3244,"altitude":0.0,"address":"Lakeshore Blvd. E / Knox Ave","capacity":11,"rental_methods":["KEY","CREDITCARD","TRANSITCARD","PHONE"],"groups":[],"obcn":"647-286-6124","nearby_distance":1000.0},{"station_id":"7320","name":"Front St W / University Ave (1)","physical_configuration":"REGULAR","lat":43.6451635,"lon":-79.3831757,"altitude":0.0,"address":"Front St W / University Ave (1)","capacity":19,"rental_methods":["KEY","CREDITCARD","TRANSITCARD","PHONE"],"groups":[],"obcn":"647-291-7762","nearby_distance":1000.0},{"station_id":"7321","name":"Front St W / University Ave (2)","physical_configuration":"REGULAR","lat":43.6452972,"lon":-79.3827914,"altitude":0.0,"address":"Front St W / University Ave (2)","capacity":19,"rental_methods":["KEY","CREDITCARD","TRANSITCARD","PHONE"],"groups":[],"obcn":"647-292-3168","nearby_distance":1000.0},{"station_id":"7322","name":"King St W / Brant St","physical_configuration":"REGULAR","lat":43.6446926,"lon":-79.3986795,"altitude":0.0,"address":"King St W / Brant St","capacity":23,"rental_methods":["KEY","CREDITCARD","TRANSITCARD","PHONE"],"groups":[],"obcn":"647-289-6923","nearby_distance":1000.0},{"station_id":"7323","name":"457 King St. W. at Spadina","physical_configuration":"REGULAR","lat":43.6452091,"lon":-79.3960744,"altitude":0.0,"address":"457 King St W.","capacity":19,"rental_methods":["KEY","CREDITCARD","TRANSITCARD","PHONE"],"groups":[],"obcn":"647-295-6273","nearby_distance":1000.0},{"station_id":"7324","name":"King St W / Charlotte St","physical_configuration":"REGULAR","lat":43.645572,"lon":-79.39399,"altitude":0.0,"address":"King St W / Charlotte St","capacity":19,"rental_methods":["KEY","CREDITCARD","TRANSITCARD","PHONE"],"groups":[],"obcn":"647-297-6118","nearby_distance":1000.0},{"station_id":"7326","name":"Davenport Rd / Lansdowne Ave.","physical_configuration":"REGULAR","lat":43.671526,"lon":-79.44874,"altitude":0.0,"address":"Davenport Rd / Landsdowne Rd","capacity":19,"rental_methods":["KEY","CREDITCARD","TRANSITCARD","PHONE"],"groups":[],"obcn":"647-308-7857","nearby_distance":1000.0},{"station_id":"7327","name":"Davenport Rd / Oakwood Rd - SMART","physical_configuration":"SMARTMAPFRAME","lat":43.674453,"lon":-79.43439,"altitude":0.0,"address":"Davenport Rd / Oakwood Rd - SMART","capacity":12,"rental_methods":["KEY","TRANSITCARD","PHONE"],"groups":["SMART MAP FRAME"],"obcn":"647-298-0692","nearby_distance":1000.0},{"station_id":"7328","name":"Roxborough St W / Yonge St","physical_configuration":"REGULAR","lat":43.678077,"lon":-79.390328,"altitude":0.0,"address":"Roxborough St W / Yonge St","capacity":17,"rental_methods":["KEY","CREDITCARD","TRANSITCARD","PHONE"],"groups":[],"obcn":"647-618-3390","nearby_distance":1000.0},{"station_id":"7329","name":"Crawford St / Queen St W","physical_configuration":"REGULAR","lat":43.645665,"lon":-79.415345,"altitude":0.0,"address":"Crawford St / Queen St W","capacity":18,"rental_methods":["KEY","CREDITCARD","TRANSITCARD","PHONE"],"groups":[],"obcn":"647-328-3562","nearby_distance":1000.0},{"station_id":"7330","name":"Lee Ave / Queen St E","physical_configuration":"REGULAR","lat":43.669863,"lon":-79.297786,"altitude":0.0,"address":"Lee Ave / Queen St E","capacity":11,"rental_methods":["KEY","CREDITCARD","TRANSITCARD","PHONE"],"groups":[],"obcn":"647-330-2116","nearby_distance":1000.0},{"station_id":"7331","name":"Coxwell Ave / Plains Rd","physical_configuration":"REGULAR","lat":43.69595,"lon":-79.328535,"altitude":0.0,"address":"Coxwell Ave / Plains Rd","capacity":19,"rental_methods":["KEY","CREDITCARD","TRANSITCARD","PHONE"],"groups":[],"obcn":"647-338-3505","nearby_distance":1000.0},{"station_id":"7332","name":"200 Bloor St. E.","physical_configuration":"REGULAR","lat":43.671561,"lon":-79.38117,"altitude":0.0,"address":"200 Bloor St. E.","capacity":23,"rental_methods":["KEY","CREDITCARD","TRANSITCARD","PHONE"],"groups":[],"obcn":"647-669-3468","nearby_distance":1000.0},{"station_id":"7333","name":"King St E / Victoria St","physical_configuration":"REGULAR","lat":43.649465,"lon":-79.3766,"altitude":0.0,"address":"King St E / Victoria St","capacity":19,"rental_methods":["KEY","CREDITCARD","TRANSITCARD","PHONE"],"groups":[],"obcn":"647-339-5578","nearby_distance":1000.0},{"station_id":"7334","name":"Simcoe St / Wellington St North","physical_configuration":"REGULAR","lat":43.6462176,"lon":-79.3855048,"altitude":0.0,"address":"Simcoe St / Wellington St 2","capacity":15,"rental_methods":["KEY","CREDITCARD","TRANSITCARD","PHONE"],"groups":[],"obcn":"647-400-0149","nearby_distance":1000.0},{"station_id":"7335","name":"BAY ST / BLOOR ST W (WEST SIDE)","physical_configuration":"REGULAR","lat":43.669244,"lon":-79.3894,"altitude":0.0,"address":"1188 Bay St","post_code":"M6H1a1","capacity":15,"rental_methods":["KEY","CREDITCARD","TRANSITCARD","PHONE"],"groups":[],"obcn":"647-719-3074","nearby_distance":1000.0},{"station_id":"7336","name":"Queen St E / Alton Av","physical_configuration":"REGULAR","lat":43.663912,"lon":-79.327987,"altitude":0.0,"address":"Queen St E / Alton Av","capacity":19,"rental_methods":["KEY","CREDITCARD","TRANSITCARD","PHONE"],"groups":[],"obcn":"647-402-6382","nearby_distance":1000.0},{"station_id":"7337","name":"Gerrard Square Mall (1010 Gerrard St E)","physical_configuration":"REGULAR","lat":43.668553,"lon":-79.338673,"altitude":0.0,"address":"Gerrard Square Mall (1010 Gerrard St E)","capacity":15,"rental_methods":["KEY","CREDITCARD","TRANSITCARD","PHONE"],"groups":[],"obcn":"647-404-3197","nearby_distance":1000.0},{"station_id":"7338","name":"Logan Ave / Bain Ave","physical_configuration":"REGULAR","lat":43.6720273,"lon":-79.3470557,"altitude":0.0,"address":"Logan Ave / Bain Ave","capacity":11,"rental_methods":["KEY","CREDITCARD","TRANSITCARD","PHONE"],"groups":[],"obcn":"647-404-6830","nearby_distance":1000.0},{"station_id":"7339","name":"Carlaw Ave / Strathcona Ave","physical_configuration":"REGULAR","lat":43.6753188,"lon":-79.3462789,"altitude":0.0,"address":"Carlaw Ave / Strathcona Ave","capacity":15,"rental_methods":["KEY","CREDITCARD","TRANSITCARD","PHONE"],"groups":[],"obcn":"647-407-3193","nearby_distance":1000.0},{"station_id":"7340","name":"Blake St / Boultbee Ave","physical_configuration":"REGULAR","lat":43.672453,"lon":-79.338259,"altitude":0.0,"address":"Blake St / Boultbee Ave","capacity":15,"rental_methods":["KEY","CREDITCARD","TRANSITCARD","PHONE"],"groups":[],"obcn":"647-408-4316","nearby_distance":1000.0},{"station_id":"7341","name":"Eastern Ave / Winnifred Ave","physical_configuration":"REGULAR","lat":43.6592088,"lon":-79.3348396,"altitude":0.0,"address":"Eastern Ave / Winnifred Ave","capacity":15,"rental_methods":["KEY","CREDITCARD","TRANSITCARD","PHONE"],"groups":[],"obcn":"647-500-1782","nearby_distance":1000.0},{"station_id":"7342","name":"Morse St / Eastern Ave","physical_configuration":"REGULAR","lat":43.657991,"lon":-79.340075,"altitude":0.0,"address":"Morse St / Eastern Ave","capacity":11,"rental_methods":["KEY","CREDITCARD","TRANSITCARD","PHONE"],"groups":[],"obcn":"647-449-8038","nearby_distance":1000.0},{"station_id":"7343","name":"Alton Ave / Dundas St E (Greenwood Park)","physical_configuration":"REGULAR","lat":43.66745,"lon":-79.329408,"altitude":0.0,"address":"Alton Ave / Dundas St E (Greenwood Park)","capacity":23,"rental_methods":["KEY","CREDITCARD","TRANSITCARD","PHONE"],"groups":[],"obcn":"647-449-0293","nearby_distance":1000.0},{"station_id":"7344","name":"Cherry Beach","physical_configuration":"REGULAR","lat":43.637764,"lon":-79.345359,"altitude":0.0,"address":"Cherry Beach","capacity":25,"rental_methods":["KEY","CREDITCARD","TRANSITCARD","PHONE"],"groups":[],"obcn":"647-501-9648","nearby_distance":1000.0},{"station_id":"7345","name":"Cherry Beach Sports Field (55 Unwin Ave)","physical_configuration":"REGULAR","lat":43.640757,"lon":-79.343144,"altitude":0.0,"address":"Cherry Beach Sports Field (55 Unwin Ave)","capacity":15,"rental_methods":["KEY","CREDITCARD","TRANSITCARD","PHONE"],"groups":[],"obcn":"647-504-2481","nearby_distance":1000.0},